[{"stateAbbreviation":"AZ","plantName":"Palo Verde","annualNetGeneration":31920368.001,"coordinates":{"lat":33.3881,"lon":-112.8617},"annualPercentage":0.7687475},{"stateAbbreviation":"AL","plantName":"Browns Ferry","annualNetGeneration":29519899.999,"coordinates":{"lat":34.7042,"lon":-87.1189},"annualPercentage":0.7109363},{"stateAbbreviation":"PA","plantName":"Peach Bottom","annualNetGeneration":22294385,"coordinates":{"lat":39.758936,"lon":-76.268742},"annualPercentage":0.5369221},{"stateAbbreviation":"TX","plantName":"South Texas Project","annualNetGeneration":21993297,"coordinates":{"lat":28.795,"lon":-96.0481},"annualPercentage":0.5296709},{"stateAbbreviation":"SC","plantName":"Oconee","annualNetGeneration":21884681.001,"coordinates":{"lat":34.7939,"lon":-82.8986},"annualPercentage":0.5270551},{"stateAbbreviation":"FL","plantName":"West County Energy Center","annualNetGeneration":21486002,"coordinates":{"lat":26.6986,"lon":-80.3747},"annualPercentage":0.5174536},{"stateAbbreviation":"PA","plantName":"TalenEnergy Susquehanna","annualNetGeneration":20919007,"coordinates":{"lat":41.0919,"lon":-76.1462},"annualPercentage":0.5037985},{"stateAbbreviation":"IL","plantName":"Braidwood Generation Station","annualNetGeneration":20251140,"coordinates":{"lat":41.2435,"lon":-88.2286},"annualPercentage":0.4877141},{"stateAbbreviation":"IL","plantName":"Byron Generating Station","annualNetGeneration":20117981,"coordinates":{"lat":42.0742,"lon":-89.2819},"annualPercentage":0.4845072},{"stateAbbreviation":"GA","plantName":"Vogtle","annualNetGeneration":19674300,"coordinates":{"lat":33.1427,"lon":-81.7625},"annualPercentage":0.4738219},{"stateAbbreviation":"SC","plantName":"Catawba","annualNetGeneration":19593607,"coordinates":{"lat":35.0514,"lon":-81.0694},"annualPercentage":0.4718785},{"stateAbbreviation":"NC","plantName":"McGuire","annualNetGeneration":19588255,"coordinates":{"lat":35.4331,"lon":-80.9486},"annualPercentage":0.4717496},{"stateAbbreviation":"IL","plantName":"LaSalle Generating Station","annualNetGeneration":19435255,"coordinates":{"lat":41.245498,"lon":-88.669066},"annualPercentage":0.4680649},{"stateAbbreviation":"PA","plantName":"Limerick","annualNetGeneration":19345594,"coordinates":{"lat":40.224303,"lon":-75.58744},"annualPercentage":0.4659055},{"stateAbbreviation":"TX","plantName":"Comanche Peak","annualNetGeneration":19304710,"coordinates":{"lat":32.298365,"lon":-97.785515},"annualPercentage":0.4649209},{"stateAbbreviation":"FL","plantName":"Turkey Point","annualNetGeneration":19270170,"coordinates":{"lat":25.4356,"lon":-80.3308},"annualPercentage":0.4640891},{"stateAbbreviation":"GA","plantName":"Jack McDonough","annualNetGeneration":19071850,"coordinates":{"lat":33.8239,"lon":-84.4758},"annualPercentage":0.4593129},{"stateAbbreviation":"AL","plantName":"James H Miller Jr","annualNetGeneration":18490948,"coordinates":{"lat":33.6319,"lon":-87.0597},"annualPercentage":0.4453229},{"stateAbbreviation":"TN","plantName":"Sequoyah","annualNetGeneration":18064619,"coordinates":{"lat":35.2267,"lon":-85.0917},"annualPercentage":0.4350555},{"stateAbbreviation":"NJ","plantName":"Salem Generating Station","annualNetGeneration":17910262,"coordinates":{"lat":39.4625,"lon":-75.5358},"annualPercentage":0.431338},{"stateAbbreviation":"TN","plantName":"Watts Bar Nuclear Plant","annualNetGeneration":17655786,"coordinates":{"lat":35.6021,"lon":-84.7895},"annualPercentage":0.4252094},{"stateAbbreviation":"NY","plantName":"Robert Moses Niagara","annualNetGeneration":16909301.999,"coordinates":{"lat":43.1427,"lon":-79.0394},"annualPercentage":0.4072316},{"stateAbbreviation":"CT","plantName":"Millstone","annualNetGeneration":16733398,"coordinates":{"lat":41.3107,"lon":-72.1677},"annualPercentage":0.4029953},{"stateAbbreviation":"WA","plantName":"Grand Coulee","annualNetGeneration":16639420.995,"coordinates":{"lat":47.957511,"lon":-118.977323},"annualPercentage":0.400732},{"stateAbbreviation":"CA","plantName":"Diablo Canyon","annualNetGeneration":16165384,"coordinates":{"lat":35.211536,"lon":-120.855542},"annualPercentage":0.3893156},{"stateAbbreviation":"MI","plantName":"Donald C Cook","annualNetGeneration":16157848,"coordinates":{"lat":41.975604,"lon":-86.565206},"annualPercentage":0.3891341},{"stateAbbreviation":"NY","plantName":"Nine Mile Point Nuclear Station","annualNetGeneration":15821376,"coordinates":{"lat":43.5211,"lon":-76.41},"annualPercentage":0.3810308},{"stateAbbreviation":"IL","plantName":"Quad Cities Generating Station","annualNetGeneration":15486108,"coordinates":{"lat":41.726111,"lon":-90.310278},"annualPercentage":0.3729564},{"stateAbbreviation":"PA","plantName":"Beaver Valley","annualNetGeneration":15456470,"coordinates":{"lat":40.6219,"lon":-80.4336},"annualPercentage":0.3722426},{"stateAbbreviation":"VA","plantName":"North Anna","annualNetGeneration":15325055,"coordinates":{"lat":38.06,"lon":-77.7897},"annualPercentage":0.3690777},{"stateAbbreviation":"MI","plantName":"Monroe","annualNetGeneration":15321784,"coordinates":{"lat":41.8906,"lon":-83.3464},"annualPercentage":0.368999},{"stateAbbreviation":"IL","plantName":"Dresden Generating Station","annualNetGeneration":15081715,"coordinates":{"lat":41.39,"lon":-88.27},"annualPercentage":0.3632173},{"stateAbbreviation":"FL","plantName":"Crystal River","annualNetGeneration":15044139,"coordinates":{"lat":28.9656,"lon":-82.6977},"annualPercentage":0.3623124},{"stateAbbreviation":"MD","plantName":"Calvert Cliffs Nuclear Power Plant","annualNetGeneration":15012922,"coordinates":{"lat":38.4344,"lon":-76.4417},"annualPercentage":0.3615605},{"stateAbbreviation":"FL","plantName":"St Lucie","annualNetGeneration":14965628,"coordinates":{"lat":27.348611,"lon":-80.246389},"annualPercentage":0.3604216},{"stateAbbreviation":"NC","plantName":"Brunswick Nuclear","annualNetGeneration":14716756,"coordinates":{"lat":33.9597,"lon":-78.0114},"annualPercentage":0.3544279},{"stateAbbreviation":"TX","plantName":"W A Parish","annualNetGeneration":14328218,"coordinates":{"lat":29.4828,"lon":-95.6311},"annualPercentage":0.3450706},{"stateAbbreviation":"VA","plantName":"Surry","annualNetGeneration":14172977,"coordinates":{"lat":37.1661,"lon":-76.6986},"annualPercentage":0.3413319},{"stateAbbreviation":"AL","plantName":"Joseph M Farley","annualNetGeneration":14136962,"coordinates":{"lat":31.2231,"lon":-85.1116},"annualPercentage":0.3404646},{"stateAbbreviation":"MO","plantName":"Labadie","annualNetGeneration":14121002,"coordinates":{"lat":38.562244,"lon":-90.837686},"annualPercentage":0.3400802},{"stateAbbreviation":"GA","plantName":"Edwin I Hatch","annualNetGeneration":13916881,"coordinates":{"lat":31.9342,"lon":-82.3447},"annualPercentage":0.3351643},{"stateAbbreviation":"OH","plantName":"Gen J M Gavin","annualNetGeneration":13894111,"coordinates":{"lat":38.9347,"lon":-82.1158},"annualPercentage":0.3346159},{"stateAbbreviation":"AR","plantName":"Arkansas Nuclear One","annualNetGeneration":13574947,"coordinates":{"lat":35.311,"lon":-93.2351},"annualPercentage":0.3269294},{"stateAbbreviation":"MT","plantName":"Colstrip","annualNetGeneration":13407682,"coordinates":{"lat":45.8831,"lon":-106.614},"annualPercentage":0.3229011},{"stateAbbreviation":"WV","plantName":"Harrison Power Station","annualNetGeneration":12894205,"coordinates":{"lat":39.384167,"lon":-80.3325},"annualPercentage":0.3105349},{"stateAbbreviation":"AL","plantName":"Barry","annualNetGeneration":12470807,"coordinates":{"lat":31.0069,"lon":-88.0103},"annualPercentage":0.3003381},{"stateAbbreviation":"AL","plantName":"Plant H. Allen Franklin","annualNetGeneration":12462636,"coordinates":{"lat":32.6078,"lon":-85.0975},"annualPercentage":0.3001413},{"stateAbbreviation":"TX","plantName":"Oak Grove","annualNetGeneration":12407412,"coordinates":{"lat":31.1803,"lon":-96.4866},"annualPercentage":0.2988113},{"stateAbbreviation":"IN","plantName":"Gibson","annualNetGeneration":12184147,"coordinates":{"lat":38.372222,"lon":-87.765833},"annualPercentage":0.2934343},{"stateAbbreviation":"TX","plantName":"Martin Lake","annualNetGeneration":12150030,"coordinates":{"lat":32.2606,"lon":-94.5706},"annualPercentage":0.2926127},{"stateAbbreviation":"GA","plantName":"Scherer","annualNetGeneration":12082963,"coordinates":{"lat":33.0606,"lon":-83.8075},"annualPercentage":0.2909975},{"stateAbbreviation":"IL","plantName":"Prairie State Generating Station","annualNetGeneration":12053090,"coordinates":{"lat":38.279167,"lon":-89.666944},"annualPercentage":0.2902781},{"stateAbbreviation":"FL","plantName":"Martin","annualNetGeneration":11744797,"coordinates":{"lat":27.0536,"lon":-80.5628},"annualPercentage":0.2828533},{"stateAbbreviation":"FL","plantName":"Hines Energy Complex","annualNetGeneration":11459778,"coordinates":{"lat":27.788215,"lon":-81.869983},"annualPercentage":0.2759892},{"stateAbbreviation":"AR","plantName":"Union Power Station","annualNetGeneration":11267495,"coordinates":{"lat":33.296146,"lon":-92.589364},"annualPercentage":0.2713583},{"stateAbbreviation":"WY","plantName":"Jim Bridger","annualNetGeneration":11254989,"coordinates":{"lat":41.7378,"lon":-108.7875},"annualPercentage":0.2710572},{"stateAbbreviation":"MS","plantName":"Grand Gulf","annualNetGeneration":11032514,"coordinates":{"lat":32.0081,"lon":-91.0478},"annualPercentage":0.2656992},{"stateAbbreviation":"PA","plantName":"Conemaugh","annualNetGeneration":11005565,"coordinates":{"lat":40.3842,"lon":-79.0611},"annualPercentage":0.2650502},{"stateAbbreviation":"PA","plantName":"Keystone","annualNetGeneration":11005292,"coordinates":{"lat":40.6604,"lon":-79.3411},"annualPercentage":0.2650436},{"stateAbbreviation":"GA","plantName":"Bowen","annualNetGeneration":10987087,"coordinates":{"lat":34.1256,"lon":-84.9222},"annualPercentage":0.2646052},{"stateAbbreviation":"NH","plantName":"Seabrook","annualNetGeneration":10906923,"coordinates":{"lat":42.899167,"lon":-70.848889},"annualPercentage":0.2626746},{"stateAbbreviation":"MN","plantName":"Sherburne County","annualNetGeneration":10752654,"coordinates":{"lat":45.3808,"lon":-93.8931},"annualPercentage":0.2589593},{"stateAbbreviation":"TX","plantName":"Forney Power Plant","annualNetGeneration":10526719,"coordinates":{"lat":32.7563,"lon":-96.4916},"annualPercentage":0.253518},{"stateAbbreviation":"FL","plantName":"Manatee","annualNetGeneration":10424615,"coordinates":{"lat":27.6058,"lon":-82.3456},"annualPercentage":0.251059},{"stateAbbreviation":"MS","plantName":"Daniel Electric Generating Plant","annualNetGeneration":10355136,"coordinates":{"lat":30.5322,"lon":-88.5553},"annualPercentage":0.2493857},{"stateAbbreviation":"KY","plantName":"Ghent","annualNetGeneration":10164161,"coordinates":{"lat":38.7497,"lon":-85.035},"annualPercentage":0.2447864},{"stateAbbreviation":"PA","plantName":"Lackawanna Energy Center","annualNetGeneration":10163068,"coordinates":{"lat":41.471389,"lon":-75.544167},"annualPercentage":0.2447601},{"stateAbbreviation":"WI","plantName":"Point Beach Nuclear Plant","annualNetGeneration":10029974,"coordinates":{"lat":44.2806,"lon":-87.5369},"annualPercentage":0.2415548},{"stateAbbreviation":"AZ","plantName":"Navajo Generating Station","annualNetGeneration":9949554,"coordinates":{"lat":36.9047,"lon":-111.3886},"annualPercentage":0.239618},{"stateAbbreviation":"MI","plantName":"Fermi","annualNetGeneration":9886149,"coordinates":{"lat":41.9631,"lon":-83.2581},"annualPercentage":0.238091},{"stateAbbreviation":"VA","plantName":"Greensville County Power Station","annualNetGeneration":9859878,"coordinates":{"lat":36.718236,"lon":-77.649559},"annualPercentage":0.2374583},{"stateAbbreviation":"WA","plantName":"Chief Joseph","annualNetGeneration":9854016.996,"coordinates":{"lat":47.9951,"lon":-119.6404},"annualPercentage":0.2373171},{"stateAbbreviation":"OH","plantName":"Dynegy Hanging Rock II, LLC","annualNetGeneration":9852082,"coordinates":{"lat":38.5731,"lon":-82.7833},"annualPercentage":0.2372705},{"stateAbbreviation":"LA","plantName":"Ninemile Point","annualNetGeneration":9832527,"coordinates":{"lat":29.9472,"lon":-90.1458},"annualPercentage":0.2367996},{"stateAbbreviation":"WV","plantName":"John E Amos","annualNetGeneration":9796207,"coordinates":{"lat":38.4731,"lon":-81.8233},"annualPercentage":0.2359249},{"stateAbbreviation":"OH","plantName":"Cardinal","annualNetGeneration":9640233,"coordinates":{"lat":40.2522,"lon":-80.6486},"annualPercentage":0.2321685},{"stateAbbreviation":"TX","plantName":"Sam Seymour","annualNetGeneration":9606490,"coordinates":{"lat":29.9172,"lon":-96.7506},"annualPercentage":0.2313559},{"stateAbbreviation":"KY","plantName":"Paradise","annualNetGeneration":9500743,"coordinates":{"lat":37.2608,"lon":-86.9783},"annualPercentage":0.2288091},{"stateAbbreviation":"TN","plantName":"Cumberland","annualNetGeneration":9409261,"coordinates":{"lat":36.3903,"lon":-87.6539},"annualPercentage":0.226606},{"stateAbbreviation":"NC","plantName":"Richmond County Plant","annualNetGeneration":9392554,"coordinates":{"lat":34.8392,"lon":-79.7406},"annualPercentage":0.2262036},{"stateAbbreviation":"KS","plantName":"Wolf Creek Generating Station","annualNetGeneration":9247734,"coordinates":{"lat":38.23926,"lon":-95.68978},"annualPercentage":0.2227159},{"stateAbbreviation":"MO","plantName":"Callaway","annualNetGeneration":9189863,"coordinates":{"lat":38.758919,"lon":-91.778841},"annualPercentage":0.2213221},{"stateAbbreviation":"OH","plantName":"Perry","annualNetGeneration":9173102,"coordinates":{"lat":41.8006,"lon":-81.1439},"annualPercentage":0.2209185},{"stateAbbreviation":"MN","plantName":"Prairie Island","annualNetGeneration":9139972,"coordinates":{"lat":44.622,"lon":-92.6333},"annualPercentage":0.2201206},{"stateAbbreviation":"WY","plantName":"Laramie River","annualNetGeneration":9032133,"coordinates":{"lat":42.108889,"lon":-104.8825},"annualPercentage":0.2175235},{"stateAbbreviation":"NM","plantName":"Four Corners Steam Elec Station","annualNetGeneration":8917348,"coordinates":{"lat":36.69,"lon":-108.4814},"annualPercentage":0.2147591},{"stateAbbreviation":"WA","plantName":"Columbia Generating Station","annualNetGeneration":8866499,"coordinates":{"lat":46.4711,"lon":-119.3339},"annualPercentage":0.2135345},{"stateAbbreviation":"MI","plantName":"Midland Cogeneration Venture","annualNetGeneration":8853024.14,"coordinates":{"lat":43.5861,"lon":-84.2242},"annualPercentage":0.2132099},{"stateAbbreviation":"GA","plantName":"Wansley CC (55965)","annualNetGeneration":8846763,"coordinates":{"lat":33.406385,"lon":-85.036988},"annualPercentage":0.2130592},{"stateAbbreviation":"KY","plantName":"Trimble County","annualNetGeneration":8823367.002,"coordinates":{"lat":38.5847,"lon":-85.4117},"annualPercentage":0.2124957},{"stateAbbreviation":"VA","plantName":"Warren County Power Station","annualNetGeneration":8769572,"coordinates":{"lat":38.971667,"lon":-78.177222},"annualPercentage":0.2112001},{"stateAbbreviation":"IN","plantName":"IPL - Petersburg Generating Station","annualNetGeneration":8755390.999,"coordinates":{"lat":38.5281,"lon":-87.2525},"annualPercentage":0.2108586},{"stateAbbreviation":"NJ","plantName":"PSEG Hope Creek Generating Station","annualNetGeneration":8726946,"coordinates":{"lat":39.4666,"lon":-75.5377},"annualPercentage":0.2101736},{"stateAbbreviation":"TX","plantName":"Limestone","annualNetGeneration":8700389,"coordinates":{"lat":31.4219,"lon":-96.2525},"annualPercentage":0.209534},{"stateAbbreviation":"UT","plantName":"Hunter","annualNetGeneration":8681798,"coordinates":{"lat":39.1747,"lon":-111.0289},"annualPercentage":0.2090863},{"stateAbbreviation":"MO","plantName":"Iatan","annualNetGeneration":8562278,"coordinates":{"lat":39.4472,"lon":-94.98},"annualPercentage":0.2062078},{"stateAbbreviation":"CO","plantName":"Comanche (470)","annualNetGeneration":8499858,"coordinates":{"lat":38.2081,"lon":-104.5747},"annualPercentage":0.2047045},{"stateAbbreviation":"FL","plantName":"Sanford","annualNetGeneration":8486422,"coordinates":{"lat":28.8419,"lon":-81.3256},"annualPercentage":0.204381},{"stateAbbreviation":"GA","plantName":"McIntosh Combined Cycle Facility","annualNetGeneration":8434782,"coordinates":{"lat":32.3478,"lon":-81.1817},"annualPercentage":0.2031373},{"stateAbbreviation":"FL","plantName":"Fort Myers","annualNetGeneration":8419570,"coordinates":{"lat":26.6967,"lon":-81.7831},"annualPercentage":0.2027709},{"stateAbbreviation":"MI","plantName":"J H Campbell","annualNetGeneration":8401561,"coordinates":{"lat":42.910296,"lon":-86.20074},"annualPercentage":0.2023372},{"stateAbbreviation":"NE","plantName":"Gerald Gentleman Station","annualNetGeneration":8400555,"coordinates":{"lat":41.0808,"lon":-101.1408},"annualPercentage":0.202313},{"stateAbbreviation":"SC","plantName":"Cross","annualNetGeneration":8375411,"coordinates":{"lat":33.371506,"lon":-80.113235},"annualPercentage":0.2017074},{"stateAbbreviation":"IL","plantName":"Clinton Power Station","annualNetGeneration":8363289,"coordinates":{"lat":40.1719,"lon":-88.8339},"annualPercentage":0.2014155},{"stateAbbreviation":"NY","plantName":"Indian Point 2","annualNetGeneration":8351945,"coordinates":{"lat":41.270556,"lon":-73.9527},"annualPercentage":0.2011423},{"stateAbbreviation":"NY","plantName":"Indian Point 3","annualNetGeneration":8342898,"coordinates":{"lat":41.2706,"lon":-73.9526},"annualPercentage":0.2009244},{"stateAbbreviation":"VA","plantName":"Brunswick County Power Station","annualNetGeneration":8333358,"coordinates":{"lat":36.765,"lon":-77.713889},"annualPercentage":0.2006947},{"stateAbbreviation":"KY","plantName":"Mill Creek","annualNetGeneration":8258067,"coordinates":{"lat":38.0525,"lon":-85.9103},"annualPercentage":0.1988814},{"stateAbbreviation":"WV","plantName":"Mountaineer (1301)","annualNetGeneration":8255230,"coordinates":{"lat":38.9794,"lon":-81.9344},"annualPercentage":0.1988131},{"stateAbbreviation":"SC","plantName":"V C Summer","annualNetGeneration":8248436,"coordinates":{"lat":34.2983,"lon":-81.3153},"annualPercentage":0.1986495},{"stateAbbreviation":"ND","plantName":"Coal Creek","annualNetGeneration":8192593,"coordinates":{"lat":47.377743,"lon":-101.157058},"annualPercentage":0.1973046},{"stateAbbreviation":"IN","plantName":"Rockport","annualNetGeneration":8146946,"coordinates":{"lat":37.9256,"lon":-87.0372},"annualPercentage":0.1962053},{"stateAbbreviation":"MO","plantName":"Thomas Hill Energy Center","annualNetGeneration":8122252,"coordinates":{"lat":39.5522,"lon":-92.6381},"annualPercentage":0.1956105},{"stateAbbreviation":"IA","plantName":"Walter Scott Jr. Energy Center","annualNetGeneration":8014203,"coordinates":{"lat":41.18,"lon":-95.8408},"annualPercentage":0.1930084},{"stateAbbreviation":"AZ","plantName":"Springerville Generating Station","annualNetGeneration":7945334,"coordinates":{"lat":34.3186,"lon":-109.1639},"annualPercentage":0.1913498},{"stateAbbreviation":"CO","plantName":"Craig","annualNetGeneration":7924394,"coordinates":{"lat":40.4627,"lon":-107.5912},"annualPercentage":0.1908455},{"stateAbbreviation":"IN","plantName":"Lawrenceburg Energy Facility","annualNetGeneration":7912142,"coordinates":{"lat":39.0911,"lon":-84.8669},"annualPercentage":0.1905504},{"stateAbbreviation":"WI","plantName":"Port Washington Generating Station","annualNetGeneration":7867603,"coordinates":{"lat":43.3842,"lon":-87.8689},"annualPercentage":0.1894778},{"stateAbbreviation":"FL","plantName":"Bayside Power Station","annualNetGeneration":7862518.998,"coordinates":{"lat":27.9072,"lon":-82.4231},"annualPercentage":0.1893553},{"stateAbbreviation":"OH","plantName":"Davis Besse","annualNetGeneration":7837459,"coordinates":{"lat":41.5967,"lon":-83.0861},"annualPercentage":0.1887518},{"stateAbbreviation":"NC","plantName":"Marshall","annualNetGeneration":7786940,"coordinates":{"lat":35.5975,"lon":-80.9658},"annualPercentage":0.1875351},{"stateAbbreviation":"NY","plantName":"Robert Moses Power Dam","annualNetGeneration":7683314,"coordinates":{"lat":45.0038,"lon":-74.7994},"annualPercentage":0.1850395},{"stateAbbreviation":"OR","plantName":"John Day","annualNetGeneration":7643804,"coordinates":{"lat":45.71644,"lon":-120.69408},"annualPercentage":0.1840879},{"stateAbbreviation":"NC","plantName":"Harris","annualNetGeneration":7610594,"coordinates":{"lat":35.6334,"lon":-78.9556},"annualPercentage":0.1832881},{"stateAbbreviation":"WI","plantName":"Elm Road Generating Station","annualNetGeneration":7577896,"coordinates":{"lat":42.8492,"lon":-87.8336},"annualPercentage":0.1825007},{"stateAbbreviation":"UT","plantName":"Intermountain","annualNetGeneration":7561844,"coordinates":{"lat":39.509731,"lon":-112.58018},"annualPercentage":0.1821141},{"stateAbbreviation":"LA","plantName":"Waterford 3","annualNetGeneration":7560402,"coordinates":{"lat":29.995267,"lon":-90.471581},"annualPercentage":0.1820794},{"stateAbbreviation":"MI","plantName":"New Covert Generating Project","annualNetGeneration":7405770,"coordinates":{"lat":42.32238,"lon":-86.29368},"annualPercentage":0.1783553},{"stateAbbreviation":"TX","plantName":"Freestone Power Generation","annualNetGeneration":7381531,"coordinates":{"lat":31.8907,"lon":-96.1131},"annualPercentage":0.1777715},{"stateAbbreviation":"TX","plantName":"Odessa Ector Generating Station","annualNetGeneration":7366950,"coordinates":{"lat":31.8403,"lon":-102.3264},"annualPercentage":0.1774204},{"stateAbbreviation":"NY","plantName":"James A Fitzpatrick","annualNetGeneration":7355106,"coordinates":{"lat":43.52139,"lon":-76.408394},"annualPercentage":0.1771351},{"stateAbbreviation":"TX","plantName":"Cottonwood Energy Project","annualNetGeneration":7246613,"coordinates":{"lat":30.2588,"lon":-93.7353},"annualPercentage":0.1745223},{"stateAbbreviation":"FL","plantName":"Port Everglades","annualNetGeneration":7204963,"coordinates":{"lat":26.0856,"lon":-80.1253},"annualPercentage":0.1735192},{"stateAbbreviation":"WA","plantName":"Centralia","annualNetGeneration":7154907,"coordinates":{"lat":46.755938,"lon":-122.859764},"annualPercentage":0.1723137},{"stateAbbreviation":"NC","plantName":"Belews Creek","annualNetGeneration":7123642,"coordinates":{"lat":36.2811,"lon":-80.0603},"annualPercentage":0.1715607},{"stateAbbreviation":"FL","plantName":"Okeechobee Clean Energy Center","annualNetGeneration":7082099,"coordinates":{"lat":27.634167,"lon":-80.791111},"annualPercentage":0.1705602},{"stateAbbreviation":"FL","plantName":"Seminole (136)","annualNetGeneration":7054142,"coordinates":{"lat":29.733056,"lon":-81.632778},"annualPercentage":0.1698869},{"stateAbbreviation":"PA","plantName":"Fairless Energy Center","annualNetGeneration":7021403,"coordinates":{"lat":40.1475,"lon":-74.7411},"annualPercentage":0.1690985},{"stateAbbreviation":"TX","plantName":"Lamar Power Plant","annualNetGeneration":7004287,"coordinates":{"lat":33.6308,"lon":-95.59},"annualPercentage":0.1686863},{"stateAbbreviation":"FL","plantName":"Polk","annualNetGeneration":6988914,"coordinates":{"lat":27.7286,"lon":-81.9897},"annualPercentage":0.168316},{"stateAbbreviation":"OH","plantName":"Miami Fort Power Station","annualNetGeneration":6974467,"coordinates":{"lat":39.1128,"lon":-84.8036},"annualPercentage":0.1679681},{"stateAbbreviation":"PA","plantName":"Moxie Freedom Generation Plant","annualNetGeneration":6955629,"coordinates":{"lat":41.113056,"lon":-76.158056},"annualPercentage":0.1675144},{"stateAbbreviation":"NE","plantName":"Cooper Nuclear Station","annualNetGeneration":6951600,"coordinates":{"lat":40.3628,"lon":-95.6408},"annualPercentage":0.1674174},{"stateAbbreviation":"NC","plantName":"Roxboro","annualNetGeneration":6947067,"coordinates":{"lat":36.4833,"lon":-79.0731},"annualPercentage":0.1673082},{"stateAbbreviation":"MO","plantName":"New Madrid Power Plant","annualNetGeneration":6880553,"coordinates":{"lat":36.5147,"lon":-89.5617},"annualPercentage":0.1657064},{"stateAbbreviation":"MI","plantName":"Palisades","annualNetGeneration":6865167,"coordinates":{"lat":42.323,"lon":-86.3146},"annualPercentage":0.1653358},{"stateAbbreviation":"PA","plantName":"Homer City","annualNetGeneration":6827882,"coordinates":{"lat":40.512825,"lon":-79.196107},"annualPercentage":0.1644379},{"stateAbbreviation":"NE","plantName":"Nebraska City Station","annualNetGeneration":6812457,"coordinates":{"lat":40.6214,"lon":-95.7764},"annualPercentage":0.1640664},{"stateAbbreviation":"TX","plantName":"Deer Park Energy Center","annualNetGeneration":6809470,"coordinates":{"lat":29.713414,"lon":-95.134508},"annualPercentage":0.1639944},{"stateAbbreviation":"NC","plantName":"H F Lee Steam Electric Plant","annualNetGeneration":6788723,"coordinates":{"lat":35.373611,"lon":-78.089444},"annualPercentage":0.1634948},{"stateAbbreviation":"OK","plantName":"Chouteau Power Plant","annualNetGeneration":6763842,"coordinates":{"lat":36.222058,"lon":-95.277064},"annualPercentage":0.1628956},{"stateAbbreviation":"AR","plantName":"White Bluff","annualNetGeneration":6743332,"coordinates":{"lat":34.4228,"lon":-92.1406},"annualPercentage":0.1624016},{"stateAbbreviation":"WV","plantName":"Fort Martin Power Station","annualNetGeneration":6701026,"coordinates":{"lat":39.710833,"lon":-79.9275},"annualPercentage":0.1613828},{"stateAbbreviation":"TX","plantName":"J K Spruce","annualNetGeneration":6692297,"coordinates":{"lat":29.309722,"lon":-98.3203},"annualPercentage":0.1611725},{"stateAbbreviation":"FL","plantName":"Cape Canaveral","annualNetGeneration":6676862,"coordinates":{"lat":28.4698,"lon":-80.7644},"annualPercentage":0.1608008},{"stateAbbreviation":"AZ","plantName":"Mesquite Generating Station","annualNetGeneration":6630659,"coordinates":{"lat":33.345,"lon":-112.864167},"annualPercentage":0.1596881},{"stateAbbreviation":"IL","plantName":"Kendall Energy Facility","annualNetGeneration":6605374,"coordinates":{"lat":41.4797,"lon":-88.2581},"annualPercentage":0.1590791},{"stateAbbreviation":"NV","plantName":"Chuck Lenzie Generating Station","annualNetGeneration":6578979,"coordinates":{"lat":36.383719,"lon":-114.921779},"annualPercentage":0.1584435},{"stateAbbreviation":"KS","plantName":"Jeffrey Energy Center","annualNetGeneration":6573628,"coordinates":{"lat":39.286453,"lon":-96.117231},"annualPercentage":0.1583146},{"stateAbbreviation":"OK","plantName":"Redbud Power Plant","annualNetGeneration":6534326,"coordinates":{"lat":35.6856,"lon":-97.2264},"annualPercentage":0.1573681},{"stateAbbreviation":"FL","plantName":"Riviera Beach Energy Center","annualNetGeneration":6439926,"coordinates":{"lat":26.7653,"lon":-80.0525},"annualPercentage":0.1550946},{"stateAbbreviation":"LA","plantName":"River Bend","annualNetGeneration":6420933,"coordinates":{"lat":30.757,"lon":-91.3327},"annualPercentage":0.1546372},{"stateAbbreviation":"TX","plantName":"Wolf Hollow II","annualNetGeneration":6399049,"coordinates":{"lat":32.337679,"lon":-97.734612},"annualPercentage":0.1541102},{"stateAbbreviation":"SC","plantName":"H B Robinson","annualNetGeneration":6376319,"coordinates":{"lat":34.4017,"lon":-80.1589},"annualPercentage":0.1535627},{"stateAbbreviation":"NC","plantName":"Cliffside","annualNetGeneration":6368172,"coordinates":{"lat":35.22,"lon":-81.7594},"annualPercentage":0.1533665},{"stateAbbreviation":"GA","plantName":"Thomas A. Smith Energy Facility","annualNetGeneration":6325926,"coordinates":{"lat":34.7094,"lon":-84.9175},"annualPercentage":0.1523491},{"stateAbbreviation":"IL","plantName":"Baldwin Energy Complex","annualNetGeneration":6291993,"coordinates":{"lat":38.205,"lon":-89.8544},"annualPercentage":0.1515319},{"stateAbbreviation":"FL","plantName":"Curtis H. Stanton Energy Center","annualNetGeneration":6179834,"coordinates":{"lat":28.4822,"lon":-81.1678},"annualPercentage":0.1488307},{"stateAbbreviation":"AZ","plantName":"Santan","annualNetGeneration":6113623,"coordinates":{"lat":33.3325,"lon":-111.7503},"annualPercentage":0.1472362},{"stateAbbreviation":"TX","plantName":"Colorado Bend II","annualNetGeneration":6104477,"coordinates":{"lat":29.289415,"lon":-96.065399},"annualPercentage":0.1470159},{"stateAbbreviation":"ND","plantName":"Antelope Valley","annualNetGeneration":6097829,"coordinates":{"lat":47.370542,"lon":-101.83566},"annualPercentage":0.1468558},{"stateAbbreviation":"OH","plantName":"Waterford Plant","annualNetGeneration":6059414,"coordinates":{"lat":39.5333,"lon":-81.7178},"annualPercentage":0.1459306},{"stateAbbreviation":"NY","plantName":"Astoria Energy","annualNetGeneration":5989392,"coordinates":{"lat":40.781321,"lon":-73.896618},"annualPercentage":0.1442443},{"stateAbbreviation":"OH","plantName":"Clean Energy Future - Lordstown, LLC","annualNetGeneration":5987495,"coordinates":{"lat":41.14889,"lon":-80.85162},"annualPercentage":0.1441986},{"stateAbbreviation":"VA","plantName":"Tenaska Virginia Generating Station","annualNetGeneration":5938030,"coordinates":{"lat":37.8667,"lon":-78.3813},"annualPercentage":0.1430073},{"stateAbbreviation":"OR","plantName":"The Dalles","annualNetGeneration":5929261.002,"coordinates":{"lat":45.614,"lon":-121.1346},"annualPercentage":0.1427961},{"stateAbbreviation":"KY","plantName":"H L Spurlock","annualNetGeneration":5889596,"coordinates":{"lat":38.7,"lon":-83.8181},"annualPercentage":0.1418408},{"stateAbbreviation":"PA","plantName":"Hunterstown Combined Cycle","annualNetGeneration":5863953,"coordinates":{"lat":39.8725,"lon":-77.1672},"annualPercentage":0.1412233},{"stateAbbreviation":"TN","plantName":"Allen","annualNetGeneration":5842649.992,"coordinates":{"lat":35.074087,"lon":-90.14868},"annualPercentage":0.1407102},{"stateAbbreviation":"FL","plantName":"P L Bartow","annualNetGeneration":5839478,"coordinates":{"lat":27.859535,"lon":-82.601759},"annualPercentage":0.1406338},{"stateAbbreviation":"MI","plantName":"Belle River","annualNetGeneration":5801672,"coordinates":{"lat":42.7756,"lon":-82.495},"annualPercentage":0.1397233},{"stateAbbreviation":"KS","plantName":"La Cygne","annualNetGeneration":5798009,"coordinates":{"lat":38.3481,"lon":-94.6456},"annualPercentage":0.1396351},{"stateAbbreviation":"LA","plantName":"Taft Cogeneration Facility","annualNetGeneration":5773776,"coordinates":{"lat":29.9888,"lon":-90.4599},"annualPercentage":0.1390515},{"stateAbbreviation":"AZ","plantName":"Gila River Power Station","annualNetGeneration":5761071,"coordinates":{"lat":32.975,"lon":-112.6944},"annualPercentage":0.1387455},{"stateAbbreviation":"IN","plantName":"Clifty Creek","annualNetGeneration":5722979,"coordinates":{"lat":38.7378,"lon":-85.4206},"annualPercentage":0.1378282},{"stateAbbreviation":"AL","plantName":"E C Gaston","annualNetGeneration":5688930,"coordinates":{"lat":33.244211,"lon":-86.458056},"annualPercentage":0.1370081},{"stateAbbreviation":"KY","plantName":"Shawnee","annualNetGeneration":5676197,"coordinates":{"lat":37.1517,"lon":-88.775},"annualPercentage":0.1367015},{"stateAbbreviation":"AR","plantName":"Independence","annualNetGeneration":5655503,"coordinates":{"lat":35.678442,"lon":-91.408761},"annualPercentage":0.1362031},{"stateAbbreviation":"PA","plantName":"Panda Hummel Station","annualNetGeneration":5625621,"coordinates":{"lat":40.839014,"lon":-76.825517},"annualPercentage":0.1354835},{"stateAbbreviation":"IN","plantName":"St. Joseph Energy Center LLC","annualNetGeneration":5617872,"coordinates":{"lat":41.698992,"lon":-86.479699},"annualPercentage":0.1352968},{"stateAbbreviation":"SC","plantName":"John S. Rainey Generating Station","annualNetGeneration":5582042.001,"coordinates":{"lat":34.347734,"lon":-82.774478},"annualPercentage":0.1344339},{"stateAbbreviation":"MO","plantName":"Rush Island","annualNetGeneration":5545392,"coordinates":{"lat":38.131248,"lon":-90.263157},"annualPercentage":0.1335513},{"stateAbbreviation":"TX","plantName":"Channelview Cogeneration Facility","annualNetGeneration":5536983,"coordinates":{"lat":29.836952,"lon":-95.121744},"annualPercentage":0.1333488},{"stateAbbreviation":"TX","plantName":"Midlothian Energy","annualNetGeneration":5536838,"coordinates":{"lat":32.4302,"lon":-97.0537},"annualPercentage":0.1333453},{"stateAbbreviation":"OH","plantName":"Kyger Creek","annualNetGeneration":5515010,"coordinates":{"lat":38.9144,"lon":-82.1289},"annualPercentage":0.1328196},{"stateAbbreviation":"TX","plantName":"Guadalupe Generating Station","annualNetGeneration":5503121,"coordinates":{"lat":29.6244,"lon":-98.1419},"annualPercentage":0.1325333},{"stateAbbreviation":"OK","plantName":"Tenaska Kiamichi Generating Station","annualNetGeneration":5500881,"coordinates":{"lat":34.6831,"lon":-95.9349},"annualPercentage":0.1324793},{"stateAbbreviation":"NJ","plantName":"Linden Cogeneration Facility","annualNetGeneration":5500027,"coordinates":{"lat":40.6322,"lon":-74.2156},"annualPercentage":0.1324587},{"stateAbbreviation":"OH","plantName":"Oregon Clean Energy Center","annualNetGeneration":5492860,"coordinates":{"lat":41.667928,"lon":-83.443664},"annualPercentage":0.1322861},{"stateAbbreviation":"IN","plantName":"R M Schahfer Generating Station","annualNetGeneration":5492575,"coordinates":{"lat":41.2164,"lon":-87.0261},"annualPercentage":0.1322793},{"stateAbbreviation":"MI","plantName":"Dearborn Industrial Generation","annualNetGeneration":5482717.001,"coordinates":{"lat":42.3026,"lon":-83.154},"annualPercentage":0.1320419},{"stateAbbreviation":"VA","plantName":"Doswell Limited Partnership","annualNetGeneration":5422339.02,"coordinates":{"lat":37.820805,"lon":-77.446246},"annualPercentage":0.1305878},{"stateAbbreviation":"WI","plantName":"Columbia","annualNetGeneration":5366563,"coordinates":{"lat":43.4864,"lon":-89.4203},"annualPercentage":0.1292445},{"stateAbbreviation":"OK","plantName":"Oneta Energy Center","annualNetGeneration":5358288,"coordinates":{"lat":36.0119,"lon":-95.6967},"annualPercentage":0.1290452},{"stateAbbreviation":"LA","plantName":"Plaquemine Cogen Facility","annualNetGeneration":5341869,"coordinates":{"lat":30.3217,"lon":-91.2347},"annualPercentage":0.1286498},{"stateAbbreviation":"PA","plantName":"York Energy Center","annualNetGeneration":5340573,"coordinates":{"lat":39.7375,"lon":-76.306666},"annualPercentage":0.1286186},{"stateAbbreviation":"CT","plantName":"Lake Road Generating Company","annualNetGeneration":5322170,"coordinates":{"lat":41.872043,"lon":-71.895799},"annualPercentage":0.1281754},{"stateAbbreviation":"NJ","plantName":"Linden Generating Station","annualNetGeneration":5310201,"coordinates":{"lat":40.6217,"lon":-74.2072},"annualPercentage":0.1278871},{"stateAbbreviation":"SC","plantName":"W S Lee","annualNetGeneration":5272034,"coordinates":{"lat":34.6022,"lon":-82.435},"annualPercentage":0.1269679},{"stateAbbreviation":"WV","plantName":"Longview Power","annualNetGeneration":5264653,"coordinates":{"lat":39.707893,"lon":-79.958974},"annualPercentage":0.1267902},{"stateAbbreviation":"IA","plantName":"Duane Arnold Energy Center","annualNetGeneration":5235716,"coordinates":{"lat":42.1011,"lon":-91.7781},"annualPercentage":0.1260933},{"stateAbbreviation":"CA","plantName":"Moss Landing","annualNetGeneration":5220833,"coordinates":{"lat":36.804837,"lon":-121.782241},"annualPercentage":0.1257348},{"stateAbbreviation":"PA","plantName":"Three Mile Island","annualNetGeneration":5214196,"coordinates":{"lat":40.1515,"lon":-76.7232},"annualPercentage":0.125575},{"stateAbbreviation":"OH","plantName":"Carroll County Energy","annualNetGeneration":5201771,"coordinates":{"lat":40.60441,"lon":-81.05918},"annualPercentage":0.1252758},{"stateAbbreviation":"SC","plantName":"Jasper County Generating Facility","annualNetGeneration":5184186,"coordinates":{"lat":32.3594,"lon":-81.1242},"annualPercentage":0.1248523},{"stateAbbreviation":"KY","plantName":"Cane Run","annualNetGeneration":5163413,"coordinates":{"lat":38.1831,"lon":-85.8892},"annualPercentage":0.124352},{"stateAbbreviation":"PA","plantName":"Tenaska Westmoreland Generating Station","annualNetGeneration":5161329,"coordinates":{"lat":40.175249,"lon":-79.696665},"annualPercentage":0.1243018},{"stateAbbreviation":"IN","plantName":"IPL - Eagle Valley Generating Station","annualNetGeneration":5100791,"coordinates":{"lat":39.48517,"lon":-86.4183},"annualPercentage":0.1228438},{"stateAbbreviation":"NJ","plantName":"Red Oak Power, LLC","annualNetGeneration":5092128,"coordinates":{"lat":40.448674,"lon":-74.348879},"annualPercentage":0.1226352},{"stateAbbreviation":"UT","plantName":"Lake Side Power Plant","annualNetGeneration":5063902,"coordinates":{"lat":40.331667,"lon":-111.754167},"annualPercentage":0.1219554},{"stateAbbreviation":"OH","plantName":"Dynegy Washington II, LLC","annualNetGeneration":5060389,"coordinates":{"lat":39.58,"lon":-81.6564},"annualPercentage":0.1218708},{"stateAbbreviation":"NJ","plantName":"Woodbridge Energy Center","annualNetGeneration":5050594.1,"coordinates":{"lat":40.515,"lon":-74.318889},"annualPercentage":0.1216349},{"stateAbbreviation":"PA","plantName":"Dynegy Fayette II, LLC","annualNetGeneration":5047358,"coordinates":{"lat":39.8592,"lon":-79.9182},"annualPercentage":0.121557},{"stateAbbreviation":"WV","plantName":"Mitchell (WV)","annualNetGeneration":5040707,"coordinates":{"lat":39.8297,"lon":-80.8153},"annualPercentage":0.1213968},{"stateAbbreviation":"AL","plantName":"Hillabee Energy Center","annualNetGeneration":5035173,"coordinates":{"lat":33.000669,"lon":-85.903278},"annualPercentage":0.1212635},{"stateAbbreviation":"TX","plantName":"Sandy Creek Energy Station","annualNetGeneration":5026547,"coordinates":{"lat":31.474378,"lon":-96.957149},"annualPercentage":0.1210558},{"stateAbbreviation":"WA","plantName":"Rocky Reach","annualNetGeneration":5020822.998,"coordinates":{"lat":47.533611,"lon":-120.295278},"annualPercentage":0.1209179},{"stateAbbreviation":"LA","plantName":"Brame Energy Center","annualNetGeneration":5017804,"coordinates":{"lat":31.395,"lon":-92.716667},"annualPercentage":0.1208452},{"stateAbbreviation":"NJ","plantName":"Newark Energy Center","annualNetGeneration":5007215,"coordinates":{"lat":40.707222,"lon":-74.125833},"annualPercentage":0.1205902},{"stateAbbreviation":"NY","plantName":"R E Ginna Nuclear Power Plant","annualNetGeneration":4993693,"coordinates":{"lat":43.2777,"lon":-77.3099},"annualPercentage":0.1202646},{"stateAbbreviation":"WV","plantName":"Pleasants Power Station","annualNetGeneration":4965173,"coordinates":{"lat":39.366667,"lon":-81.294444},"annualPercentage":0.1195777},{"stateAbbreviation":"MN","plantName":"Monticello Nuclear Facility","annualNetGeneration":4964575,"coordinates":{"lat":45.3338,"lon":-93.8493},"annualPercentage":0.1195633},{"stateAbbreviation":"TN","plantName":"John Sevier","annualNetGeneration":4954090,"coordinates":{"lat":36.3767,"lon":-82.9639},"annualPercentage":0.1193108},{"stateAbbreviation":"UT","plantName":"Huntington","annualNetGeneration":4897525,"coordinates":{"lat":39.3792,"lon":-111.0781},"annualPercentage":0.1179485},{"stateAbbreviation":"PA","plantName":"Helix Ironwood LLC","annualNetGeneration":4843502,"coordinates":{"lat":40.3509,"lon":-76.3658},"annualPercentage":0.1166475},{"stateAbbreviation":"AL","plantName":"Central Alabama Gen Station","annualNetGeneration":4832746,"coordinates":{"lat":32.6497,"lon":-86.74},"annualPercentage":0.1163884},{"stateAbbreviation":"LA","plantName":"Acadia Power Station","annualNetGeneration":4816801,"coordinates":{"lat":30.428611,"lon":-92.413056},"annualPercentage":0.1160044},{"stateAbbreviation":"MN","plantName":"Boswell Energy Center","annualNetGeneration":4810980,"coordinates":{"lat":47.2611,"lon":-93.6528},"annualPercentage":0.1158642},{"stateAbbreviation":"NY","plantName":"Independence","annualNetGeneration":4780068.82,"coordinates":{"lat":43.495,"lon":-76.4511},"annualPercentage":0.1151198},{"stateAbbreviation":"PA","plantName":"Hamilton Liberty Generation Plant","annualNetGeneration":4779655,"coordinates":{"lat":41.7675,"lon":-76.39},"annualPercentage":0.1151098},{"stateAbbreviation":"OK","plantName":"Green Country Energy, LLC","annualNetGeneration":4725797,"coordinates":{"lat":35.9833,"lon":-95.9346},"annualPercentage":0.1138127},{"stateAbbreviation":"PA","plantName":"Bethlehem Power Plant","annualNetGeneration":4721993,"coordinates":{"lat":40.6175,"lon":-75.3147},"annualPercentage":0.1137211},{"stateAbbreviation":"TX","plantName":"Baytown Energy Center","annualNetGeneration":4721930,"coordinates":{"lat":29.7731,"lon":-94.9019},"annualPercentage":0.1137196},{"stateAbbreviation":"NM","plantName":"San Juan","annualNetGeneration":4715981,"coordinates":{"lat":36.8006,"lon":-108.4386},"annualPercentage":0.1135763},{"stateAbbreviation":"ND","plantName":"Milton R Young","annualNetGeneration":4705187,"coordinates":{"lat":47.065854,"lon":-101.213093},"annualPercentage":0.1133164},{"stateAbbreviation":"WY","plantName":"Dave Johnston","annualNetGeneration":4686379,"coordinates":{"lat":42.8378,"lon":-105.7769},"annualPercentage":0.1128634},{"stateAbbreviation":"NJ","plantName":"West Deptford Energy Station","annualNetGeneration":4682299,"coordinates":{"lat":39.8414,"lon":-75.2214},"annualPercentage":0.1127652},{"stateAbbreviation":"NC","plantName":"Plant Rowan County","annualNetGeneration":4669856.999,"coordinates":{"lat":35.7314,"lon":-80.6019},"annualPercentage":0.1124655},{"stateAbbreviation":"MD","plantName":"Keys Energy Center","annualNetGeneration":4658538,"coordinates":{"lat":38.695519,"lon":-76.827785},"annualPercentage":0.1121929},{"stateAbbreviation":"AZ","plantName":"Redhawk Generating Facility","annualNetGeneration":4650226,"coordinates":{"lat":33.334562,"lon":-112.840641},"annualPercentage":0.1119927},{"stateAbbreviation":"OK","plantName":"Northeastern","annualNetGeneration":4639038,"coordinates":{"lat":36.4317,"lon":-95.7008},"annualPercentage":0.1117233},{"stateAbbreviation":"TX","plantName":"Panda Temple Power Station","annualNetGeneration":4638514,"coordinates":{"lat":31.055833,"lon":-97.317222},"annualPercentage":0.1117107},{"stateAbbreviation":"NC","plantName":"L V Sutton","annualNetGeneration":4620495,"coordinates":{"lat":34.283056,"lon":-77.985278},"annualPercentage":0.1112767},{"stateAbbreviation":"MS","plantName":"David M Ratcliffe","annualNetGeneration":4610121,"coordinates":{"lat":32.654722,"lon":-88.762222},"annualPercentage":0.1110269},{"stateAbbreviation":"IN","plantName":"Merom","annualNetGeneration":4590850,"coordinates":{"lat":39.0694,"lon":-87.5108},"annualPercentage":0.1105628},{"stateAbbreviation":"MS","plantName":"Choctaw County Gen","annualNetGeneration":4550073,"coordinates":{"lat":33.2881,"lon":-89.4201},"annualPercentage":0.1095807},{"stateAbbreviation":"TX","plantName":"Welsh Power Plant","annualNetGeneration":4544694,"coordinates":{"lat":33.05522,"lon":-94.839993},"annualPercentage":0.1094512},{"stateAbbreviation":"NY","plantName":"Bethlehem Energy Center (Albany)","annualNetGeneration":4544459,"coordinates":{"lat":42.594196,"lon":-73.763752},"annualPercentage":0.1094455},{"stateAbbreviation":"WV","plantName":"Mount Storm Power Station","annualNetGeneration":4533104,"coordinates":{"lat":39.2008,"lon":-79.2636},"annualPercentage":0.1091721},{"stateAbbreviation":"OR","plantName":"McNary","annualNetGeneration":4474352.001,"coordinates":{"lat":45.9402,"lon":-119.2988},"annualPercentage":0.1077571},{"stateAbbreviation":"PA","plantName":"Marcus Hook Energy, LP","annualNetGeneration":4470434,"coordinates":{"lat":39.807038,"lon":-75.421606},"annualPercentage":0.1076628},{"stateAbbreviation":"OH","plantName":"Dresden Energy Facility","annualNetGeneration":4459872,"coordinates":{"lat":40.0928,"lon":-82.0276},"annualPercentage":0.1074084},{"stateAbbreviation":"IL","plantName":"Joppa Steam","annualNetGeneration":4412691,"coordinates":{"lat":37.2094,"lon":-88.858889},"annualPercentage":0.1062721},{"stateAbbreviation":"WI","plantName":"Weston","annualNetGeneration":4409017,"coordinates":{"lat":44.8606,"lon":-89.6553},"annualPercentage":0.1061836},{"stateAbbreviation":"AL","plantName":"E B Harris Generating Plant","annualNetGeneration":4404405,"coordinates":{"lat":32.381352,"lon":-86.574366},"annualPercentage":0.1060726},{"stateAbbreviation":"MA","plantName":"Fore River Energy Center","annualNetGeneration":4403184,"coordinates":{"lat":42.2422,"lon":-70.9661},"annualPercentage":0.1060432},{"stateAbbreviation":"NC","plantName":"Dan River","annualNetGeneration":4394833,"coordinates":{"lat":36.4862,"lon":-79.7208},"annualPercentage":0.105842},{"stateAbbreviation":"TX","plantName":"V H Braunig","annualNetGeneration":4392799,"coordinates":{"lat":29.257046,"lon":-98.384045},"annualPercentage":0.1057931},{"stateAbbreviation":"NC","plantName":"Buck","annualNetGeneration":4392284,"coordinates":{"lat":35.7133,"lon":-80.3767},"annualPercentage":0.1057806},{"stateAbbreviation":"CA","plantName":"Geysers Unit 5-20","annualNetGeneration":4351428.998,"coordinates":{"lat":38.777,"lon":-122.745},"annualPercentage":0.1047967},{"stateAbbreviation":"PA","plantName":"Springdale Generating Station (55710)","annualNetGeneration":4340792,"coordinates":{"lat":40.545278,"lon":-79.768611},"annualPercentage":0.1045406},{"stateAbbreviation":"WI","plantName":"Fox Energy Center","annualNetGeneration":4311102,"coordinates":{"lat":44.3204,"lon":-88.208889},"annualPercentage":0.1038255},{"stateAbbreviation":"OR","plantName":"Hermiston Power Plant","annualNetGeneration":4298264,"coordinates":{"lat":45.794046,"lon":-119.313323},"annualPercentage":0.1035163},{"stateAbbreviation":"TX","plantName":"Bosque County Power Plant","annualNetGeneration":4256899,"coordinates":{"lat":31.8594,"lon":-97.3586},"annualPercentage":0.1025201},{"stateAbbreviation":"TX","plantName":"Pasadena Power Plant","annualNetGeneration":4255293,"coordinates":{"lat":29.72475,"lon":-95.176479},"annualPercentage":0.1024815},{"stateAbbreviation":"WA","plantName":"Wanapum","annualNetGeneration":4252008,"coordinates":{"lat":46.8731,"lon":-119.9703},"annualPercentage":0.1024023},{"stateAbbreviation":"NV","plantName":"Tracy","annualNetGeneration":4248303,"coordinates":{"lat":39.5625,"lon":-119.525},"annualPercentage":0.1023131},{"stateAbbreviation":"IN","plantName":"Alcoa Allowance Management Inc","annualNetGeneration":4214527,"coordinates":{"lat":37.915,"lon":-87.3328},"annualPercentage":0.1014997},{"stateAbbreviation":"OR","plantName":"Bonneville","annualNetGeneration":4207100.994,"coordinates":{"lat":45.6441,"lon":-121.941009},"annualPercentage":0.1013208},{"stateAbbreviation":"MD","plantName":"CPV St. Charles Energy Center","annualNetGeneration":4198193,"coordinates":{"lat":38.5686,"lon":-76.8919},"annualPercentage":0.1011063},{"stateAbbreviation":"SD","plantName":"Oahe","annualNetGeneration":4185392.001,"coordinates":{"lat":44.4504,"lon":-100.3866},"annualPercentage":0.100798},{"stateAbbreviation":"TX","plantName":"Channel Energy Center","annualNetGeneration":4176244,"coordinates":{"lat":29.7189,"lon":-95.2319},"annualPercentage":0.1005777},{"stateAbbreviation":"TN","plantName":"Gallatin","annualNetGeneration":4157882,"coordinates":{"lat":36.3156,"lon":-86.4006},"annualPercentage":0.1001355},{"stateAbbreviation":"MS","plantName":"Batesville Generation Facility","annualNetGeneration":4134003,"coordinates":{"lat":34.3356,"lon":-89.9275},"annualPercentage":0.0995604},{"stateAbbreviation":"NY","plantName":"Valley Energy Center","annualNetGeneration":4100277,"coordinates":{"lat":41.4122,"lon":-74.4378},"annualPercentage":0.0987482},{"stateAbbreviation":"TX","plantName":"ExxonMobil Beaumont Refinery","annualNetGeneration":4091154.999,"coordinates":{"lat":30.0636,"lon":-94.0753},"annualPercentage":0.0985285},{"stateAbbreviation":"TX","plantName":"Rio Nogales Power Project, LP","annualNetGeneration":4082240.99,"coordinates":{"lat":29.593056,"lon":-97.973215},"annualPercentage":0.0983138},{"stateAbbreviation":"MI","plantName":"Zeeland Generating Station","annualNetGeneration":4075661,"coordinates":{"lat":42.8206,"lon":-85.9975},"annualPercentage":0.0981553},{"stateAbbreviation":"TX","plantName":"Jack County Generation Facility","annualNetGeneration":4066724,"coordinates":{"lat":33.101,"lon":-97.9574},"annualPercentage":0.0979401},{"stateAbbreviation":"CA","plantName":"Pastoria Energy Facility","annualNetGeneration":4060797,"coordinates":{"lat":34.9556,"lon":-118.844},"annualPercentage":0.0977974},{"stateAbbreviation":"WI","plantName":"Riverside Energy Center","annualNetGeneration":4042588,"coordinates":{"lat":42.583056,"lon":-89.035833},"annualPercentage":0.0973588},{"stateAbbreviation":"IL","plantName":"Nelson Energy Center","annualNetGeneration":4017076,"coordinates":{"lat":41.774444,"lon":-89.607222},"annualPercentage":0.0967444},{"stateAbbreviation":"AR","plantName":"John W. Turk Jr. Power Plant","annualNetGeneration":4015020,"coordinates":{"lat":33.649722,"lon":-93.811944},"annualPercentage":0.0966949},{"stateAbbreviation":"TX","plantName":"South Houston Green Power Site","annualNetGeneration":4010581,"coordinates":{"lat":29.378097,"lon":-94.932773},"annualPercentage":0.096588},{"stateAbbreviation":"CO","plantName":"Fort St. Vrain","annualNetGeneration":4004703,"coordinates":{"lat":40.2461,"lon":-104.8742},"annualPercentage":0.0964464},{"stateAbbreviation":"TX","plantName":"Tenaska Frontier Generating Station","annualNetGeneration":3993421,"coordinates":{"lat":30.5924,"lon":-95.9178},"annualPercentage":0.0961747},{"stateAbbreviation":"WA","plantName":"Priest Rapids","annualNetGeneration":3988833.996,"coordinates":{"lat":46.6451,"lon":-119.908},"annualPercentage":0.0960642},{"stateAbbreviation":"IN","plantName":"Edwardsport Generating Station","annualNetGeneration":3981902,"coordinates":{"lat":38.8067,"lon":-87.2472},"annualPercentage":0.0958973},{"stateAbbreviation":"PA","plantName":"Hamilton Patriot Generation Plant","annualNetGeneration":3970551,"coordinates":{"lat":41.180833,"lon":-76.839167},"annualPercentage":0.0956239},{"stateAbbreviation":"MS","plantName":"Caledonia","annualNetGeneration":3958083,"coordinates":{"lat":33.6464,"lon":-88.2717},"annualPercentage":0.0953237},{"stateAbbreviation":"VA","plantName":"Panda Stonewall Power Project","annualNetGeneration":3957679,"coordinates":{"lat":39.058056,"lon":-77.545},"annualPercentage":0.0953139},{"stateAbbreviation":"OH","plantName":"W H Sammis","annualNetGeneration":3956914,"coordinates":{"lat":40.5317,"lon":-80.6319},"annualPercentage":0.0952955},{"stateAbbreviation":"AR","plantName":"Plum Point Energy Station","annualNetGeneration":3944609,"coordinates":{"lat":35.6644,"lon":-89.9489},"annualPercentage":0.0949992},{"stateAbbreviation":"TX","plantName":"Formosa Utility Venture Ltd","annualNetGeneration":3933591.53,"coordinates":{"lat":28.6917,"lon":-96.5417},"annualPercentage":0.0947338},{"stateAbbreviation":"CO","plantName":"Cherokee","annualNetGeneration":3932404,"coordinates":{"lat":39.807275,"lon":-104.964548},"annualPercentage":0.0947052},{"stateAbbreviation":"PA","plantName":"Ontelaunee Energy Center","annualNetGeneration":3930943,"coordinates":{"lat":40.4219,"lon":-75.9356},"annualPercentage":0.09467},{"stateAbbreviation":"PA","plantName":"Liberty Electric Power Plant","annualNetGeneration":3928947,"coordinates":{"lat":39.8614,"lon":-75.3358},"annualPercentage":0.094622},{"stateAbbreviation":"FL","plantName":"Lansing Smith Generating Plant","annualNetGeneration":3913387,"coordinates":{"lat":30.2686,"lon":-85.7003},"annualPercentage":0.0942472},{"stateAbbreviation":"TX","plantName":"Tenaska Gateway Generating Station","annualNetGeneration":3903757,"coordinates":{"lat":32.017826,"lon":-94.619743},"annualPercentage":0.0940153},{"stateAbbreviation":"MI","plantName":"St. Clair","annualNetGeneration":3900957,"coordinates":{"lat":42.7642,"lon":-82.4719},"annualPercentage":0.0939479},{"stateAbbreviation":"AZ","plantName":"Glen Canyon Dam","annualNetGeneration":3892305.001,"coordinates":{"lat":36.936614,"lon":-111.483872},"annualPercentage":0.0937395},{"stateAbbreviation":"FL","plantName":"Big Bend","annualNetGeneration":3889923,"coordinates":{"lat":27.7944,"lon":-82.4036},"annualPercentage":0.0936821},{"stateAbbreviation":"MO","plantName":"Sioux","annualNetGeneration":3885566,"coordinates":{"lat":38.915479,"lon":-90.290247},"annualPercentage":0.0935772},{"stateAbbreviation":"FL","plantName":"Northside","annualNetGeneration":3878239,"coordinates":{"lat":30.4172,"lon":-81.5525},"annualPercentage":0.0934008},{"stateAbbreviation":"CT","plantName":"CPV Towantic Energy Center","annualNetGeneration":3867768,"coordinates":{"lat":41.481243,"lon":-73.123108},"annualPercentage":0.0931486},{"stateAbbreviation":"PR","plantName":"Costa Sur Plant","annualNetGeneration":3859324,"coordinates":{"lat":18.003,"lon":-66.7597},"annualPercentage":0.0929452},{"stateAbbreviation":"CA","plantName":"Elk Hills Power","annualNetGeneration":3845666,"coordinates":{"lat":35.280318,"lon":-119.470707},"annualPercentage":0.0926163},{"stateAbbreviation":"WI","plantName":"South Oak Creek","annualNetGeneration":3806012,"coordinates":{"lat":42.8457,"lon":-87.8294},"annualPercentage":0.0916613},{"stateAbbreviation":"IA","plantName":"Ottumwa","annualNetGeneration":3790697,"coordinates":{"lat":41.0961,"lon":-92.555833},"annualPercentage":0.0912925},{"stateAbbreviation":"MS","plantName":"Magnolia Combined Cycle Plant","annualNetGeneration":3768367,"coordinates":{"lat":34.835,"lon":-89.2026},"annualPercentage":0.0907547},{"stateAbbreviation":"IA","plantName":"Marshalltown Generating Station","annualNetGeneration":3761078,"coordinates":{"lat":42.043333,"lon":-92.872778},"annualPercentage":0.0905791},{"stateAbbreviation":"FL","plantName":"Brandy Branch","annualNetGeneration":3754810,"coordinates":{"lat":30.320556,"lon":-81.947222},"annualPercentage":0.0904282},{"stateAbbreviation":"FL","plantName":"Midulla Generating Station","annualNetGeneration":3749101,"coordinates":{"lat":27.641667,"lon":-81.9625},"annualPercentage":0.0902907},{"stateAbbreviation":"UT","plantName":"Bonanza","annualNetGeneration":3737947,"coordinates":{"lat":40.0864,"lon":-109.2844},"annualPercentage":0.0900221},{"stateAbbreviation":"TX","plantName":"Harrington Station","annualNetGeneration":3735239,"coordinates":{"lat":35.29816,"lon":-101.747187},"annualPercentage":0.0899568},{"stateAbbreviation":"LA","plantName":"Coughlin Power Station","annualNetGeneration":3723199,"coordinates":{"lat":30.8439,"lon":-92.261111},"annualPercentage":0.0896669},{"stateAbbreviation":"IN","plantName":"Sugar Creek Generating Station","annualNetGeneration":3717060,"coordinates":{"lat":39.3931,"lon":-87.5108},"annualPercentage":0.089519},{"stateAbbreviation":"CT","plantName":"Milford Power Company LLC","annualNetGeneration":3713789,"coordinates":{"lat":41.224355,"lon":-73.099728},"annualPercentage":0.0894403},{"stateAbbreviation":"WA","plantName":"Wells","annualNetGeneration":3687032,"coordinates":{"lat":47.9469,"lon":-119.8653},"annualPercentage":0.0887959},{"stateAbbreviation":"FL","plantName":"Cane Island","annualNetGeneration":3657303,"coordinates":{"lat":28.2764,"lon":-81.533},"annualPercentage":0.0880799},{"stateAbbreviation":"LA","plantName":"St. Charles Power Station","annualNetGeneration":3615675,"coordinates":{"lat":30.01,"lon":-90.460833},"annualPercentage":0.0870773},{"stateAbbreviation":"VA","plantName":"Chesterfield Power Station","annualNetGeneration":3614833,"coordinates":{"lat":37.3822,"lon":-77.3833},"annualPercentage":0.0870571},{"stateAbbreviation":"OK","plantName":"Sooner","annualNetGeneration":3609927,"coordinates":{"lat":36.45307,"lon":-97.05279},"annualPercentage":0.0869389},{"stateAbbreviation":"ND","plantName":"Leland Olds","annualNetGeneration":3605405,"coordinates":{"lat":47.280769,"lon":-101.321213},"annualPercentage":0.08683},{"stateAbbreviation":"LA","plantName":"Ouachita Plant","annualNetGeneration":3595463,"coordinates":{"lat":32.7061,"lon":-92.0683},"annualPercentage":0.0865906},{"stateAbbreviation":"TN","plantName":"Lagoon Creek","annualNetGeneration":3574040.004,"coordinates":{"lat":35.6578,"lon":-89.3964},"annualPercentage":0.0860746},{"stateAbbreviation":"AL","plantName":"McWilliams","annualNetGeneration":3560672,"coordinates":{"lat":31.400255,"lon":-86.476449},"annualPercentage":0.0857527},{"stateAbbreviation":"VA","plantName":"Bear Garden Generating Station","annualNetGeneration":3558440,"coordinates":{"lat":37.695556,"lon":-78.285278},"annualPercentage":0.0856989},{"stateAbbreviation":"OH","plantName":"W H Zimmer Generating Station","annualNetGeneration":3549263,"coordinates":{"lat":38.8675,"lon":-84.2289},"annualPercentage":0.0854779},{"stateAbbreviation":"CA","plantName":"Delta Energy Center, LLC","annualNetGeneration":3533557,"coordinates":{"lat":38.0169,"lon":-121.8439},"annualPercentage":0.0850997},{"stateAbbreviation":"PR","plantName":"AES Puerto Rico","annualNetGeneration":3532311,"coordinates":{"lat":17.947115,"lon":-66.1499},"annualPercentage":0.0850697},{"stateAbbreviation":"PR","plantName":"EcoElectrica","annualNetGeneration":3517807,"coordinates":{"lat":17.981025,"lon":-66.75542},"annualPercentage":0.0847204},{"stateAbbreviation":"IN","plantName":"Cayuga","annualNetGeneration":3513813,"coordinates":{"lat":39.9242,"lon":-87.4244},"annualPercentage":0.0846242},{"stateAbbreviation":"MN","plantName":"High Bridge","annualNetGeneration":3497026,"coordinates":{"lat":44.9314,"lon":-93.1117},"annualPercentage":0.0842199},{"stateAbbreviation":"MS","plantName":"Southaven Combined Cycle Plant","annualNetGeneration":3433556,"coordinates":{"lat":34.9939,"lon":-90.0378},"annualPercentage":0.0826913},{"stateAbbreviation":"WA","plantName":"Grays Harbor Energy Center","annualNetGeneration":3407096,"coordinates":{"lat":46.9692,"lon":-123.48},"annualPercentage":0.0820541},{"stateAbbreviation":"NV","plantName":"Harry Allen","annualNetGeneration":3378358,"coordinates":{"lat":36.430554,"lon":-114.902405},"annualPercentage":0.081362},{"stateAbbreviation":"NM","plantName":"Hobbs Generating Station","annualNetGeneration":3364279,"coordinates":{"lat":32.728333,"lon":-103.309444},"annualPercentage":0.0810229},{"stateAbbreviation":"MD","plantName":"Wildcat Point Generation Facility","annualNetGeneration":3351020,"coordinates":{"lat":39.719364,"lon":-76.161625},"annualPercentage":0.0807036},{"stateAbbreviation":"IA","plantName":"Louisa","annualNetGeneration":3346358,"coordinates":{"lat":41.3181,"lon":-91.0931},"annualPercentage":0.0805913},{"stateAbbreviation":"CA","plantName":"High Desert Power Project","annualNetGeneration":3337426,"coordinates":{"lat":34.5953,"lon":-117.3647},"annualPercentage":0.0803762},{"stateAbbreviation":"OH","plantName":"Middletown Energy Center","annualNetGeneration":3329496,"coordinates":{"lat":39.465,"lon":-84.347778},"annualPercentage":0.0801852},{"stateAbbreviation":"GA","plantName":"Chattahoochee Energy Facility","annualNetGeneration":3327345,"coordinates":{"lat":33.4072,"lon":-85.0386},"annualPercentage":0.0801334},{"stateAbbreviation":"TN","plantName":"Kingston","annualNetGeneration":3320006,"coordinates":{"lat":35.8992,"lon":-84.5194},"annualPercentage":0.0799567},{"stateAbbreviation":"OR","plantName":"Klamath Cogeneration Project","annualNetGeneration":3311657.6,"coordinates":{"lat":42.173889,"lon":-121.810556},"annualPercentage":0.0797556},{"stateAbbreviation":"NJ","plantName":"Sewaren Generating Station","annualNetGeneration":3308721,"coordinates":{"lat":40.5558,"lon":-74.2469},"annualPercentage":0.0796849},{"stateAbbreviation":"WA","plantName":"Boundary","annualNetGeneration":3300777,"coordinates":{"lat":48.987111,"lon":-117.347847},"annualPercentage":0.0794936},{"stateAbbreviation":"LA","plantName":"Big Cajun 2","annualNetGeneration":3273954,"coordinates":{"lat":30.7261,"lon":-91.3692},"annualPercentage":0.0788476},{"stateAbbreviation":"SC","plantName":"Columbia Energy Center (SC)","annualNetGeneration":3251100,"coordinates":{"lat":33.8697,"lon":-81.0178},"annualPercentage":0.0782972},{"stateAbbreviation":"TX","plantName":"Sabine","annualNetGeneration":3249202,"coordinates":{"lat":30.0242,"lon":-93.878},"annualPercentage":0.0782515},{"stateAbbreviation":"AR","plantName":"Dell Power Plant","annualNetGeneration":3229128,"coordinates":{"lat":35.8619,"lon":-90.0253},"annualPercentage":0.077768},{"stateAbbreviation":"TX","plantName":"Coleto Creek","annualNetGeneration":3225780,"coordinates":{"lat":28.7128,"lon":-97.214167},"annualPercentage":0.0776874},{"stateAbbreviation":"TX","plantName":"T C Ferguson Power Plant","annualNetGeneration":3217710,"coordinates":{"lat":30.558,"lon":-98.3705},"annualPercentage":0.077493},{"stateAbbreviation":"IL","plantName":"E D Edwards","annualNetGeneration":3212500,"coordinates":{"lat":40.5958,"lon":-89.6631},"annualPercentage":0.0773676},{"stateAbbreviation":"LA","plantName":"Nelson Industrial Steam Company","annualNetGeneration":3211248,"coordinates":{"lat":30.2844,"lon":-93.2911},"annualPercentage":0.0773374},{"stateAbbreviation":"TX","plantName":"Optim Energy Altura Cogen, LLC","annualNetGeneration":3209121,"coordinates":{"lat":29.8161,"lon":-95.10773},"annualPercentage":0.0772862},{"stateAbbreviation":"TX","plantName":"Panda Sherman Power Station","annualNetGeneration":3204591,"coordinates":{"lat":33.582573,"lon":-96.617893},"annualPercentage":0.0771771},{"stateAbbreviation":"IL","plantName":"Newton","annualNetGeneration":3201174,"coordinates":{"lat":38.9361,"lon":-88.2781},"annualPercentage":0.0770948},{"stateAbbreviation":"TX","plantName":"SRO Cogen Limited Partnership","annualNetGeneration":3183664,"coordinates":{"lat":30.0552,"lon":-93.7579},"annualPercentage":0.0766731},{"stateAbbreviation":"ND","plantName":"Garrison","annualNetGeneration":3179292.001,"coordinates":{"lat":47.4945,"lon":-101.4115},"annualPercentage":0.0765678},{"stateAbbreviation":"TX","plantName":"Freeport Energy","annualNetGeneration":3177956.35,"coordinates":{"lat":28.991289,"lon":-95.407481},"annualPercentage":0.0765356},{"stateAbbreviation":"MS","plantName":"Hinds Energy Facility","annualNetGeneration":3175684,"coordinates":{"lat":32.378969,"lon":-90.219906},"annualPercentage":0.0764809},{"stateAbbreviation":"KY","plantName":"East Bend","annualNetGeneration":3165500,"coordinates":{"lat":38.9036,"lon":-84.8514},"annualPercentage":0.0762357},{"stateAbbreviation":"TX","plantName":"Newman","annualNetGeneration":3162889,"coordinates":{"lat":31.983587,"lon":-106.431777},"annualPercentage":0.0761728},{"stateAbbreviation":"FL","plantName":"C D McIntosh Jr Power Plant","annualNetGeneration":3146756,"coordinates":{"lat":28.0801,"lon":-81.9229},"annualPercentage":0.0757842},{"stateAbbreviation":"AL","plantName":"Morgan Energy Center","annualNetGeneration":3121340,"coordinates":{"lat":34.6397,"lon":-87.0639},"annualPercentage":0.0751721},{"stateAbbreviation":"TX","plantName":"Hays Energy Facility","annualNetGeneration":3119338,"coordinates":{"lat":29.7806,"lon":-97.9894},"annualPercentage":0.0751239},{"stateAbbreviation":"IL","plantName":"Kincaid Generating Station","annualNetGeneration":3114921,"coordinates":{"lat":39.590556,"lon":-89.496389},"annualPercentage":0.0750175},{"stateAbbreviation":"MO","plantName":"Hawthorn","annualNetGeneration":3092294,"coordinates":{"lat":39.1306,"lon":-94.4778},"annualPercentage":0.0744726},{"stateAbbreviation":"MN","plantName":"Riverside (1927)","annualNetGeneration":3085561,"coordinates":{"lat":45.0203,"lon":-93.2753},"annualPercentage":0.0743105},{"stateAbbreviation":"RI","plantName":"Rhode Island State Energy Center","annualNetGeneration":3079007,"coordinates":{"lat":41.8017,"lon":-71.5186},"annualPercentage":0.0741526},{"stateAbbreviation":"TX","plantName":"H W Pirkey Power Plant","annualNetGeneration":3071153,"coordinates":{"lat":32.4607,"lon":-94.4852},"annualPercentage":0.0739635},{"stateAbbreviation":"GA","plantName":"Wansley (7946)","annualNetGeneration":3069769,"coordinates":{"lat":33.4083,"lon":-85.0403},"annualPercentage":0.0739301},{"stateAbbreviation":"AL","plantName":"Wilson Dam","annualNetGeneration":3045105.004,"coordinates":{"lat":34.79782,"lon":-87.62537},"annualPercentage":0.0733361},{"stateAbbreviation":"CA","plantName":"Mountainview Generating Station","annualNetGeneration":3040688.1,"coordinates":{"lat":34.0818,"lon":-117.2418},"annualPercentage":0.0732298},{"stateAbbreviation":"CA","plantName":"Watson Cogeneration","annualNetGeneration":3036844,"coordinates":{"lat":33.816647,"lon":-118.244841},"annualPercentage":0.0731372},{"stateAbbreviation":"MS","plantName":"Ackerman Combined Cycle Plant","annualNetGeneration":3036658,"coordinates":{"lat":33.3792,"lon":-89.2089},"annualPercentage":0.0731327},{"stateAbbreviation":"CA","plantName":"Colusa Generating Station","annualNetGeneration":3028361,"coordinates":{"lat":39.3661,"lon":-122.27},"annualPercentage":0.0729329},{"stateAbbreviation":"NH","plantName":"Granite Ridge Energy","annualNetGeneration":3025595,"coordinates":{"lat":42.9042,"lon":-71.4261},"annualPercentage":0.0728663},{"stateAbbreviation":"LA","plantName":"Louisiana 1","annualNetGeneration":3025291,"coordinates":{"lat":30.4922,"lon":-91.1864},"annualPercentage":0.072859},{"stateAbbreviation":"TX","plantName":"Ingleside Cogeneration","annualNetGeneration":2995976,"coordinates":{"lat":27.882778,"lon":-97.242778},"annualPercentage":0.072153},{"stateAbbreviation":"PR","plantName":"Aguirre Plant","annualNetGeneration":2991959,"coordinates":{"lat":17.9492,"lon":-66.234},"annualPercentage":0.0720562},{"stateAbbreviation":"OR","plantName":"Carty Generating Station","annualNetGeneration":2989615,"coordinates":{"lat":45.698611,"lon":-119.813056},"annualPercentage":0.0719998},{"stateAbbreviation":"AZ","plantName":"Griffith Energy Project","annualNetGeneration":2981217,"coordinates":{"lat":35.054029,"lon":-114.133272},"annualPercentage":0.0717975},{"stateAbbreviation":"NC","plantName":"Kings Mountain Energy Center","annualNetGeneration":2976809,"coordinates":{"lat":35.2025,"lon":-81.363056},"annualPercentage":0.0716914},{"stateAbbreviation":"LA","plantName":"Carville Energy Center","annualNetGeneration":2970427,"coordinates":{"lat":30.2294,"lon":-91.065},"annualPercentage":0.0715377},{"stateAbbreviation":"AZ","plantName":"APS West Phoenix Power Plant","annualNetGeneration":2970148,"coordinates":{"lat":33.4417,"lon":-112.1583},"annualPercentage":0.0715309},{"stateAbbreviation":"OK","plantName":"McClain Energy Facility","annualNetGeneration":2956466,"coordinates":{"lat":35.29774,"lon":-97.58985},"annualPercentage":0.0712014},{"stateAbbreviation":"AR","plantName":"Hot Spring Energy Facility","annualNetGeneration":2937705,"coordinates":{"lat":34.29759,"lon":-92.868344},"annualPercentage":0.0707496},{"stateAbbreviation":"AZ","plantName":"Arlington Valley Energy Facility","annualNetGeneration":2928495,"coordinates":{"lat":33.3417,"lon":-112.8897},"annualPercentage":0.0705278},{"stateAbbreviation":"CA","plantName":"Haynes Generating Station","annualNetGeneration":2926943.998,"coordinates":{"lat":33.764741,"lon":-118.09913},"annualPercentage":0.0704904},{"stateAbbreviation":"UT","plantName":"Currant Creek Power Project","annualNetGeneration":2917516,"coordinates":{"lat":39.82144,"lon":-111.89345},"annualPercentage":0.0702634},{"stateAbbreviation":"NY","plantName":"Athens Generating Company","annualNetGeneration":2917147,"coordinates":{"lat":42.2728,"lon":-73.8492},"annualPercentage":0.0702545},{"stateAbbreviation":"NJ","plantName":"Bergen Generating Station","annualNetGeneration":2915380,"coordinates":{"lat":40.8375,"lon":-74.0244},"annualPercentage":0.0702119},{"stateAbbreviation":"LA","plantName":"R S Cogen LLC","annualNetGeneration":2913462.49,"coordinates":{"lat":30.221,"lon":-93.2992},"annualPercentage":0.0701658},{"stateAbbreviation":"CA","plantName":"Gateway Generating Station","annualNetGeneration":2872858,"coordinates":{"lat":38.0175,"lon":-121.7587},"annualPercentage":0.0691879},{"stateAbbreviation":"OR","plantName":"Hermiston","annualNetGeneration":2862630,"coordinates":{"lat":45.8042,"lon":-119.37},"annualPercentage":0.0689415},{"stateAbbreviation":"VA","plantName":"Possum Point Power Station","annualNetGeneration":2855931,"coordinates":{"lat":38.5367,"lon":-77.2806},"annualPercentage":0.0687802},{"stateAbbreviation":"TX","plantName":"Magic Valley Generating Station","annualNetGeneration":2850038,"coordinates":{"lat":26.3403,"lon":-98.19},"annualPercentage":0.0686383},{"stateAbbreviation":"TX","plantName":"Wise County Power Company, LLC","annualNetGeneration":2841134,"coordinates":{"lat":33.0583,"lon":-97.9103},"annualPercentage":0.0684239},{"stateAbbreviation":"WY","plantName":"Naughton","annualNetGeneration":2840670,"coordinates":{"lat":41.7581,"lon":-110.5983},"annualPercentage":0.0684127},{"stateAbbreviation":"AZ","plantName":"Gila River Power Block 2","annualNetGeneration":2840032,"coordinates":{"lat":32.975,"lon":-112.694444},"annualPercentage":0.0683973},{"stateAbbreviation":"NY","plantName":"East River","annualNetGeneration":2818767,"coordinates":{"lat":40.7281,"lon":-73.9742},"annualPercentage":0.0678852},{"stateAbbreviation":"LA","plantName":"Perryville Power Station","annualNetGeneration":2795549,"coordinates":{"lat":32.6908,"lon":-92.0183},"annualPercentage":0.067326},{"stateAbbreviation":"AZ","plantName":"Cholla","annualNetGeneration":2782781,"coordinates":{"lat":34.9394,"lon":-110.3033},"annualPercentage":0.0670185},{"stateAbbreviation":"IN","plantName":"Whiting Clean Energy, Inc.","annualNetGeneration":2772152,"coordinates":{"lat":41.6739,"lon":-87.4775},"annualPercentage":0.0667625},{"stateAbbreviation":"TX","plantName":"Sweeny Cogeneration Facility","annualNetGeneration":2761240,"coordinates":{"lat":29.0728,"lon":-95.745},"annualPercentage":0.0664997},{"stateAbbreviation":"CA","plantName":"Cosumnes Power Plant","annualNetGeneration":2751173,"coordinates":{"lat":38.338475,"lon":-121.123978},"annualPercentage":0.0662573},{"stateAbbreviation":"TX","plantName":"Tolk Station","annualNetGeneration":2741753,"coordinates":{"lat":34.186494,"lon":-102.56999},"annualPercentage":0.0660304},{"stateAbbreviation":"MO","plantName":"State Line (MO)","annualNetGeneration":2738545,"coordinates":{"lat":37.0659,"lon":-94.614},"annualPercentage":0.0659532},{"stateAbbreviation":"OR","plantName":"Port Westward","annualNetGeneration":2737946,"coordinates":{"lat":46.17894,"lon":-123.172039},"annualPercentage":0.0659387},{"stateAbbreviation":"TX","plantName":"Calpine Hidalgo Energy Center","annualNetGeneration":2722153,"coordinates":{"lat":26.34172,"lon":-98.175759},"annualPercentage":0.0655584},{"stateAbbreviation":"LA","plantName":"Little Gypsy","annualNetGeneration":2708876,"coordinates":{"lat":30.005067,"lon":-90.461694},"annualPercentage":0.0652386},{"stateAbbreviation":"CA","plantName":"Los Medanos Energy Center, LLC","annualNetGeneration":2707149,"coordinates":{"lat":38.030071,"lon":-121.873004},"annualPercentage":0.0651971},{"stateAbbreviation":"IL","plantName":"Coffeen","annualNetGeneration":2682390,"coordinates":{"lat":39.0586,"lon":-89.4031},"annualPercentage":0.0646008},{"stateAbbreviation":"FL","plantName":"Crist Electric Generating Plant","annualNetGeneration":2668010,"coordinates":{"lat":30.5661,"lon":-87.2244},"annualPercentage":0.0642545},{"stateAbbreviation":"CA","plantName":"Edward C Hyatt","annualNetGeneration":2662842.999,"coordinates":{"lat":39.542985,"lon":-121.492188},"annualPercentage":0.06413},{"stateAbbreviation":"CO","plantName":"Front Range Power Plant","annualNetGeneration":2653816,"coordinates":{"lat":38.6281,"lon":-104.7069},"annualPercentage":0.0639126},{"stateAbbreviation":"KY","plantName":"D B Wilson","annualNetGeneration":2639484,"coordinates":{"lat":37.4497,"lon":-87.0806},"annualPercentage":0.0635675},{"stateAbbreviation":"NM","plantName":"Luna Energy Facility","annualNetGeneration":2638042,"coordinates":{"lat":32.299349,"lon":-107.7834},"annualPercentage":0.0635327},{"stateAbbreviation":"SD","plantName":"Big Stone","annualNetGeneration":2619088,"coordinates":{"lat":45.303652,"lon":-96.510067},"annualPercentage":0.0630763},{"stateAbbreviation":"TX","plantName":"Harrison County Power Project","annualNetGeneration":2612562,"coordinates":{"lat":32.3958,"lon":-94.4367},"annualPercentage":0.0629191},{"stateAbbreviation":"TX","plantName":"Oklaunion Power Station","annualNetGeneration":2601923,"coordinates":{"lat":34.0825,"lon":-99.1753},"annualPercentage":0.0626629},{"stateAbbreviation":"TX","plantName":"Oyster Creek Unit VIII","annualNetGeneration":2596660,"coordinates":{"lat":28.9802,"lon":-95.342},"annualPercentage":0.0625361},{"stateAbbreviation":"LA","plantName":"Arsenal Hill Power Plant","annualNetGeneration":2590763,"coordinates":{"lat":32.51947,"lon":-93.760125},"annualPercentage":0.0623941},{"stateAbbreviation":"PA","plantName":"Brunner Island, LLC","annualNetGeneration":2587597,"coordinates":{"lat":40.096111,"lon":-76.6962},"annualPercentage":0.0623178},{"stateAbbreviation":"OR","plantName":"Boardman","annualNetGeneration":2573942,"coordinates":{"lat":45.693182,"lon":-119.808819},"annualPercentage":0.061989},{"stateAbbreviation":"CO","plantName":"Hayden","annualNetGeneration":2570811,"coordinates":{"lat":40.4856,"lon":-107.185},"annualPercentage":0.0619136},{"stateAbbreviation":"TX","plantName":"ExxonMobil Baytown Turbine","annualNetGeneration":2566588.999,"coordinates":{"lat":29.759124,"lon":-95.009648},"annualPercentage":0.0618119},{"stateAbbreviation":"CA","plantName":"Metcalf Energy Center","annualNetGeneration":2566081,"coordinates":{"lat":37.2207,"lon":-121.7457},"annualPercentage":0.0617997},{"stateAbbreviation":"WY","plantName":"Dry Fork Station","annualNetGeneration":2565548,"coordinates":{"lat":44.388889,"lon":-105.460833},"annualPercentage":0.0617868},{"stateAbbreviation":"TX","plantName":"Jones Station","annualNetGeneration":2561998,"coordinates":{"lat":33.5239,"lon":-101.7392},"annualPercentage":0.0617013},{"stateAbbreviation":"IA","plantName":"Emery Station","annualNetGeneration":2561894,"coordinates":{"lat":43.094,"lon":-93.292222},"annualPercentage":0.0616988},{"stateAbbreviation":"MS","plantName":"Watson Electric Generating Plant","annualNetGeneration":2558552,"coordinates":{"lat":30.4392,"lon":-89.0286},"annualPercentage":0.0616183},{"stateAbbreviation":"SC","plantName":"Williams","annualNetGeneration":2557366,"coordinates":{"lat":33.0158,"lon":-79.9297},"annualPercentage":0.0615898},{"stateAbbreviation":"ID","plantName":"Brownlee","annualNetGeneration":2538736.999,"coordinates":{"lat":44.8367,"lon":-116.8975},"annualPercentage":0.0611411},{"stateAbbreviation":"CO","plantName":"Rocky Mountain Energy Center","annualNetGeneration":2531682,"coordinates":{"lat":40.0908,"lon":-104.5953},"annualPercentage":0.0609712},{"stateAbbreviation":"CO","plantName":"Pawnee","annualNetGeneration":2510140,"coordinates":{"lat":40.2217,"lon":-103.6803},"annualPercentage":0.0604524},{"stateAbbreviation":"TX","plantName":"Horse Hollow Wind Energy Center","annualNetGeneration":2493463,"coordinates":{"lat":32.214024,"lon":-100.05712},"annualPercentage":0.0600508},{"stateAbbreviation":"TX","plantName":"Eastman Cogeneration Facility","annualNetGeneration":2472402.93,"coordinates":{"lat":32.4481,"lon":-94.6903},"annualPercentage":0.0595436},{"stateAbbreviation":"IN","plantName":"A B Brown Generating Station","annualNetGeneration":2469960,"coordinates":{"lat":37.9053,"lon":-87.715},"annualPercentage":0.0594848},{"stateAbbreviation":"NY","plantName":"Empire Generating Co, LLC","annualNetGeneration":2463914,"coordinates":{"lat":42.625239,"lon":-73.750021},"annualPercentage":0.0593392},{"stateAbbreviation":"CT","plantName":"Bridgeport Energy","annualNetGeneration":2462934,"coordinates":{"lat":41.1692,"lon":-73.1844},"annualPercentage":0.0593156},{"stateAbbreviation":"NY","plantName":"Poletti 500 MW CC","annualNetGeneration":2446465,"coordinates":{"lat":40.7889,"lon":-73.9069},"annualPercentage":0.0589189},{"stateAbbreviation":"TX","plantName":"Lost Pines 1","annualNetGeneration":2438506,"coordinates":{"lat":30.1478,"lon":-97.2714},"annualPercentage":0.0587272},{"stateAbbreviation":"WA","plantName":"Chehalis Generation Facility","annualNetGeneration":2431536,"coordinates":{"lat":46.6225,"lon":-122.9131},"annualPercentage":0.0585594},{"stateAbbreviation":"KS","plantName":"Lawrence Energy Center","annualNetGeneration":2421593,"coordinates":{"lat":39.0072,"lon":-95.269167},"annualPercentage":0.0583199},{"stateAbbreviation":"MO","plantName":"Dogwood Energy Facility","annualNetGeneration":2420523,"coordinates":{"lat":38.7931,"lon":-94.3006},"annualPercentage":0.0582942},{"stateAbbreviation":"TX","plantName":"Mustang Station","annualNetGeneration":2419793,"coordinates":{"lat":32.9728,"lon":-102.7417},"annualPercentage":0.0582766},{"stateAbbreviation":"TX","plantName":"Twin Oaks","annualNetGeneration":2413924,"coordinates":{"lat":31.091925,"lon":-96.69503},"annualPercentage":0.0581352},{"stateAbbreviation":"PA","plantName":"Lower Mount Bethel Energy, LLC","annualNetGeneration":2401811,"coordinates":{"lat":40.801924,"lon":-75.107563},"annualPercentage":0.0578435},{"stateAbbreviation":"AR","plantName":"Flint Creek Power Plant","annualNetGeneration":2376855,"coordinates":{"lat":36.2561,"lon":-94.5241},"annualPercentage":0.0572425},{"stateAbbreviation":"MS","plantName":"Red Hills Generation Facility","annualNetGeneration":2366866,"coordinates":{"lat":33.3761,"lon":-89.2183},"annualPercentage":0.0570019},{"stateAbbreviation":"KY","plantName":"R D Green","annualNetGeneration":2344526,"coordinates":{"lat":37.6461,"lon":-87.5},"annualPercentage":0.0564639},{"stateAbbreviation":"TX","plantName":"Brazos Valley Energy, LP","annualNetGeneration":2341414,"coordinates":{"lat":29.4731,"lon":-95.6244},"annualPercentage":0.056389},{"stateAbbreviation":"HI","plantName":"Kahe","annualNetGeneration":2336309,"coordinates":{"lat":21.356395,"lon":-158.128853},"annualPercentage":0.056266},{"stateAbbreviation":"IL","plantName":"Powerton","annualNetGeneration":2334751,"coordinates":{"lat":40.5408,"lon":-89.6786},"annualPercentage":0.0562285},{"stateAbbreviation":"TX","plantName":"Bastrop Clean Energy Center","annualNetGeneration":2311028,"coordinates":{"lat":30.1458,"lon":-97.55},"annualPercentage":0.0556572},{"stateAbbreviation":"OH","plantName":"Conesville","annualNetGeneration":2310697,"coordinates":{"lat":40.1842,"lon":-81.8811},"annualPercentage":0.0556492},{"stateAbbreviation":"NY","plantName":"Ravenswood Generating Station","annualNetGeneration":2298704,"coordinates":{"lat":40.759167,"lon":-73.946111},"annualPercentage":0.0553604},{"stateAbbreviation":"CA","plantName":"Shasta","annualNetGeneration":2293986.998,"coordinates":{"lat":40.717455,"lon":-122.422274},"annualPercentage":0.0552468},{"stateAbbreviation":"TX","plantName":"Wolf Hollow Generating Station","annualNetGeneration":2292134,"coordinates":{"lat":32.33422,"lon":-97.731686},"annualPercentage":0.0552021},{"stateAbbreviation":"TX","plantName":"Air Liquide Bayport Complex","annualNetGeneration":2288739,"coordinates":{"lat":29.6225,"lon":-95.0458},"annualPercentage":0.0551204},{"stateAbbreviation":"FL","plantName":"Anclote","annualNetGeneration":2278498,"coordinates":{"lat":28.184444,"lon":-82.788611},"annualPercentage":0.0548737},{"stateAbbreviation":"WA","plantName":"Rock Island","annualNetGeneration":2257714.999,"coordinates":{"lat":47.346111,"lon":-120.0917},"annualPercentage":0.0543732},{"stateAbbreviation":"CA","plantName":"Valley Generating Station","annualNetGeneration":2241784,"coordinates":{"lat":34.244991,"lon":-118.391327},"annualPercentage":0.0539895},{"stateAbbreviation":"IL","plantName":"Duck Creek","annualNetGeneration":2241252,"coordinates":{"lat":40.4663,"lon":-89.9841},"annualPercentage":0.0539767},{"stateAbbreviation":"WA","plantName":"Lower Monumental","annualNetGeneration":2240943,"coordinates":{"lat":46.5635,"lon":-118.5397},"annualPercentage":0.0539693},{"stateAbbreviation":"NV","plantName":"Walter M. Higgins III Generating Station","annualNetGeneration":2240346,"coordinates":{"lat":35.6139,"lon":-115.3561},"annualPercentage":0.0539549},{"stateAbbreviation":"TX","plantName":"Capricorn Ridge Wind LLC","annualNetGeneration":2237527,"coordinates":{"lat":31.951958,"lon":-101.018936},"annualPercentage":0.053887},{"stateAbbreviation":"MD","plantName":"Brandon Shores","annualNetGeneration":2231445,"coordinates":{"lat":39.18,"lon":-76.5389},"annualPercentage":0.0537405},{"stateAbbreviation":"PR","plantName":"Central San Juan Plant","annualNetGeneration":2229443,"coordinates":{"lat":18.4271,"lon":-66.1045},"annualPercentage":0.0536923},{"stateAbbreviation":"AZ","plantName":"Desert Basin Generating Station","annualNetGeneration":2220079,"coordinates":{"lat":32.9042,"lon":-111.7889},"annualPercentage":0.0534668},{"stateAbbreviation":"FL","plantName":"Osprey Energy Center","annualNetGeneration":2214152,"coordinates":{"lat":28.0525,"lon":-81.8083},"annualPercentage":0.0533241},{"stateAbbreviation":"OR","plantName":"Hells Canyon","annualNetGeneration":2213313.999,"coordinates":{"lat":45.2439,"lon":-116.7008},"annualPercentage":0.0533039},{"stateAbbreviation":"OK","plantName":"Grand River Dam Authority","annualNetGeneration":2205674,"coordinates":{"lat":36.190278,"lon":-95.2894},"annualPercentage":0.0531199},{"stateAbbreviation":"TX","plantName":"Quail Run Energy Center","annualNetGeneration":2202069,"coordinates":{"lat":31.8414,"lon":-102.315},"annualPercentage":0.0530331},{"stateAbbreviation":"SD","plantName":"Fort Randall","annualNetGeneration":2201556,"coordinates":{"lat":43.0653,"lon":-98.5539},"annualPercentage":0.0530207},{"stateAbbreviation":"WA","plantName":"Lower Granite","annualNetGeneration":2192833.002,"coordinates":{"lat":46.659503,"lon":-117.429385},"annualPercentage":0.0528106},{"stateAbbreviation":"TX","plantName":"Lewis Creek","annualNetGeneration":2192164,"coordinates":{"lat":30.4356,"lon":-95.5214},"annualPercentage":0.0527945},{"stateAbbreviation":"CA","plantName":"Sunrise Power Company","annualNetGeneration":2188614,"coordinates":{"lat":35.2097,"lon":-119.585},"annualPercentage":0.052709},{"stateAbbreviation":"MA","plantName":"Mystic","annualNetGeneration":2188027,"coordinates":{"lat":42.3908,"lon":-71.0675},"annualPercentage":0.0526949},{"stateAbbreviation":"PA","plantName":"Birdsboro Power","annualNetGeneration":2186256,"coordinates":{"lat":40.268522,"lon":-75.799669},"annualPercentage":0.0526522},{"stateAbbreviation":"NY","plantName":"Caithness Long Island Energy Center","annualNetGeneration":2186105,"coordinates":{"lat":40.8142,"lon":-72.9403},"annualPercentage":0.0526486},{"stateAbbreviation":"TX","plantName":"Cedar Bayou","annualNetGeneration":2185549,"coordinates":{"lat":29.75,"lon":-94.9256},"annualPercentage":0.0526352},{"stateAbbreviation":"MA","plantName":"Pilgrim Nuclear Power Station","annualNetGeneration":2177204,"coordinates":{"lat":41.9438,"lon":-70.578},"annualPercentage":0.0524342},{"stateAbbreviation":"MI","plantName":"Jackson Generating Station","annualNetGeneration":2176623,"coordinates":{"lat":42.2488,"lon":-84.3767},"annualPercentage":0.0524202},{"stateAbbreviation":"NV","plantName":"Hoover Dam (NV)","annualNetGeneration":2175714.999,"coordinates":{"lat":36.01551,"lon":-114.738006},"annualPercentage":0.0523984},{"stateAbbreviation":"MD","plantName":"Conowingo","annualNetGeneration":2161865,"coordinates":{"lat":39.6572,"lon":-76.1752},"annualPercentage":0.0520648},{"stateAbbreviation":"AL","plantName":"Decatur Energy Center","annualNetGeneration":2144807,"coordinates":{"lat":34.6292,"lon":-87.0214},"annualPercentage":0.051654},{"stateAbbreviation":"GA","plantName":"Effingham County Power, LLC","annualNetGeneration":2135027,"coordinates":{"lat":32.277252,"lon":-81.284411},"annualPercentage":0.0514185},{"stateAbbreviation":"LA","plantName":"PPG Powerhouse C","annualNetGeneration":2132191,"coordinates":{"lat":30.22612,"lon":-93.295173},"annualPercentage":0.0513502},{"stateAbbreviation":"CT","plantName":"Kleen Energy Systems Project","annualNetGeneration":2115440,"coordinates":{"lat":41.553227,"lon":-72.596867},"annualPercentage":0.0509468},{"stateAbbreviation":"TX","plantName":"Colorado Bend Energy Center","annualNetGeneration":2110465,"coordinates":{"lat":29.2878,"lon":-96.0683},"annualPercentage":0.0508269},{"stateAbbreviation":"NV","plantName":"Apex Generating Station","annualNetGeneration":2109062,"coordinates":{"lat":36.415999,"lon":-114.960916},"annualPercentage":0.0507932},{"stateAbbreviation":"WA","plantName":"Little Goose","annualNetGeneration":2101741.998,"coordinates":{"lat":46.5838,"lon":-118.0273},"annualPercentage":0.0506169},{"stateAbbreviation":"CT","plantName":"Bridgeport Harbor Station","annualNetGeneration":2100031,"coordinates":{"lat":41.1706,"lon":-73.1844},"annualPercentage":0.0505757},{"stateAbbreviation":"LA","plantName":"Dow St Charles Operations","annualNetGeneration":2086369.88,"coordinates":{"lat":29.9861,"lon":-90.4414},"annualPercentage":0.0502467},{"stateAbbreviation":"AZ","plantName":"Coronado Generating Station","annualNetGeneration":2074935,"coordinates":{"lat":34.5789,"lon":-109.2708},"annualPercentage":0.0499713},{"stateAbbreviation":"TX","plantName":"San Miguel","annualNetGeneration":2071883,"coordinates":{"lat":28.7044,"lon":-98.4775},"annualPercentage":0.0498978},{"stateAbbreviation":"ND","plantName":"Coyote","annualNetGeneration":2061731,"coordinates":{"lat":47.221447,"lon":-101.815722},"annualPercentage":0.0496533},{"stateAbbreviation":"SC","plantName":"Wateree","annualNetGeneration":2061246,"coordinates":{"lat":33.8264,"lon":-80.6228},"annualPercentage":0.0496416},{"stateAbbreviation":"MN","plantName":"Mankato Energy Center","annualNetGeneration":2054197,"coordinates":{"lat":44.1988,"lon":-94.003},"annualPercentage":0.0494718},{"stateAbbreviation":"GA","plantName":"Yates","annualNetGeneration":2053086,"coordinates":{"lat":33.4622,"lon":-84.8986},"annualPercentage":0.0494451},{"stateAbbreviation":"CO","plantName":"Rawhide Energy Station","annualNetGeneration":2037518.998,"coordinates":{"lat":40.860905,"lon":-105.021207},"annualPercentage":0.0490702},{"stateAbbreviation":"NY","plantName":"Northport","annualNetGeneration":2029121,"coordinates":{"lat":40.923565,"lon":-73.342323},"annualPercentage":0.0488679},{"stateAbbreviation":"AZ","plantName":"Apache Station","annualNetGeneration":2002818,"coordinates":{"lat":32.0603,"lon":-109.8931},"annualPercentage":0.0482344},{"stateAbbreviation":"TX","plantName":"Corpus Christi Energy Center","annualNetGeneration":1991874,"coordinates":{"lat":27.8139,"lon":-97.4283},"annualPercentage":0.0479709},{"stateAbbreviation":"CO","plantName":"Rush Creek Wind","annualNetGeneration":1975124,"coordinates":{"lat":39.172111,"lon":-103.845358},"annualPercentage":0.0475675},{"stateAbbreviation":"OK","plantName":"Seminole (2956)","annualNetGeneration":1944060,"coordinates":{"lat":34.96645,"lon":-96.7258},"annualPercentage":0.0468194},{"stateAbbreviation":"OH","plantName":"Fremont Energy Center","annualNetGeneration":1905391,"coordinates":{"lat":41.377116,"lon":-83.161388},"annualPercentage":0.0458881},{"stateAbbreviation":"WA","plantName":"Goldendale Generating Station","annualNetGeneration":1905173,"coordinates":{"lat":45.8114,"lon":-120.833},"annualPercentage":0.0458828},{"stateAbbreviation":"NY","plantName":"Brooklyn Navy Yard Cogeneration","annualNetGeneration":1892243,"coordinates":{"lat":40.699357,"lon":-73.976392},"annualPercentage":0.0455714},{"stateAbbreviation":"OR","plantName":"Coyote Springs II","annualNetGeneration":1890016,"coordinates":{"lat":45.848039,"lon":-119.673965},"annualPercentage":0.0455178},{"stateAbbreviation":"AZ","plantName":"South Point Energy Center, LLC","annualNetGeneration":1886216,"coordinates":{"lat":34.8678,"lon":-114.5317},"annualPercentage":0.0454263},{"stateAbbreviation":"NE","plantName":"North Omaha Station","annualNetGeneration":1873296,"coordinates":{"lat":41.32909,"lon":-95.94466},"annualPercentage":0.0451151},{"stateAbbreviation":"PA","plantName":"Seward","annualNetGeneration":1866633,"coordinates":{"lat":40.40625,"lon":-79.03366},"annualPercentage":0.0449547},{"stateAbbreviation":"WA","plantName":"Mint Farm Generating Station","annualNetGeneration":1864732,"coordinates":{"lat":46.138824,"lon":-122.985506},"annualPercentage":0.0449089},{"stateAbbreviation":"IL","plantName":"Dallman","annualNetGeneration":1853889,"coordinates":{"lat":39.754803,"lon":-89.602389},"annualPercentage":0.0446477},{"stateAbbreviation":"SC","plantName":"Cope Station","annualNetGeneration":1851609,"coordinates":{"lat":33.3644,"lon":-81.03},"annualPercentage":0.0445928},{"stateAbbreviation":"WY","plantName":"Wyodak","annualNetGeneration":1850871,"coordinates":{"lat":44.290128,"lon":-105.381482},"annualPercentage":0.0445751},{"stateAbbreviation":"TX","plantName":"Motiva Enterprises Port Arthur Refinery","annualNetGeneration":1837251.58,"coordinates":{"lat":29.888462,"lon":-93.950984},"annualPercentage":0.0442471},{"stateAbbreviation":"MI","plantName":"Dan E Karn","annualNetGeneration":1819804,"coordinates":{"lat":43.644996,"lon":-83.840074},"annualPercentage":0.0438269},{"stateAbbreviation":"GA","plantName":"Wansley (6052)","annualNetGeneration":1815800,"coordinates":{"lat":33.41342,"lon":-85.032329},"annualPercentage":0.0437304},{"stateAbbreviation":"ID","plantName":"Rathdrum Power, LLC","annualNetGeneration":1801369,"coordinates":{"lat":47.7858,"lon":-116.9203},"annualPercentage":0.0433829},{"stateAbbreviation":"MA","plantName":"ANP Bellingham Energy Company, LLC","annualNetGeneration":1799773,"coordinates":{"lat":42.110577,"lon":-71.453468},"annualPercentage":0.0433445},{"stateAbbreviation":"NV","plantName":"Silverhawk","annualNetGeneration":1795018,"coordinates":{"lat":36.4078,"lon":-114.9606},"annualPercentage":0.0432299},{"stateAbbreviation":"FL","plantName":"Treasure Coast Energy Center","annualNetGeneration":1787745,"coordinates":{"lat":27.383889,"lon":-80.3775},"annualPercentage":0.0430548},{"stateAbbreviation":"MO","plantName":"John Twitty Energy Center","annualNetGeneration":1785013,"coordinates":{"lat":37.151706,"lon":-93.38804},"annualPercentage":0.042989},{"stateAbbreviation":"MN","plantName":"Black Dog","annualNetGeneration":1780228,"coordinates":{"lat":44.8108,"lon":-93.2501},"annualPercentage":0.0428737},{"stateAbbreviation":"OR","plantName":"Coyote Springs","annualNetGeneration":1769340,"coordinates":{"lat":45.847998,"lon":-119.67392},"annualPercentage":0.0426115},{"stateAbbreviation":"AL","plantName":"Greene County","annualNetGeneration":1767889.004,"coordinates":{"lat":32.6017,"lon":-87.7811},"annualPercentage":0.0425766},{"stateAbbreviation":"TX","plantName":"Mustang Station (56326)","annualNetGeneration":1757444.001,"coordinates":{"lat":32.974554,"lon":-102.743607},"annualPercentage":0.042325},{"stateAbbreviation":"TX","plantName":"Texas City Cogeneration","annualNetGeneration":1749994,"coordinates":{"lat":29.378697,"lon":-94.943829},"annualPercentage":0.0421456},{"stateAbbreviation":"WA","plantName":"River Road","annualNetGeneration":1746286,"coordinates":{"lat":45.6497,"lon":-122.7256},"annualPercentage":0.0420563},{"stateAbbreviation":"MN","plantName":"Allen S King","annualNetGeneration":1739179,"coordinates":{"lat":45.03,"lon":-92.7786},"annualPercentage":0.0418852},{"stateAbbreviation":"MD","plantName":"Morgantown","annualNetGeneration":1737320,"coordinates":{"lat":38.3592,"lon":-76.9767},"annualPercentage":0.0418404},{"stateAbbreviation":"TX","plantName":"Houston Chemical Complex Battleground","annualNetGeneration":1733150,"coordinates":{"lat":29.7314,"lon":-95.0839},"annualPercentage":0.04174},{"stateAbbreviation":"KS","plantName":"Flat Ridge 2 Wind Energy LLC","annualNetGeneration":1729783,"coordinates":{"lat":37.366509,"lon":-98.261077},"annualPercentage":0.0416589},{"stateAbbreviation":"AL","plantName":"Tenaska Lindsay Hill Generating Station","annualNetGeneration":1723985,"coordinates":{"lat":32.6514,"lon":-86.7386},"annualPercentage":0.0415192},{"stateAbbreviation":"DE","plantName":"Garrison Energy Center","annualNetGeneration":1723655,"coordinates":{"lat":39.187195,"lon":-75.499396},"annualPercentage":0.0415113},{"stateAbbreviation":"WA","plantName":"Ice Harbor","annualNetGeneration":1722250.002,"coordinates":{"lat":46.249801,"lon":-118.879838},"annualPercentage":0.0414774},{"stateAbbreviation":"SC","plantName":"Urquhart","annualNetGeneration":1715364.999,"coordinates":{"lat":33.435,"lon":-81.9111},"annualPercentage":0.0413116},{"stateAbbreviation":"NM","plantName":"Cunningham","annualNetGeneration":1707645,"coordinates":{"lat":32.7131,"lon":-103.3533},"annualPercentage":0.0411257},{"stateAbbreviation":"AR","plantName":"Magnet Cove Generating Station","annualNetGeneration":1705578,"coordinates":{"lat":34.4297,"lon":-92.8317},"annualPercentage":0.0410759},{"stateAbbreviation":"ID","plantName":"Dworshak","annualNetGeneration":1702262,"coordinates":{"lat":46.5143,"lon":-116.2977},"annualPercentage":0.0409961},{"stateAbbreviation":"NV","plantName":"North Valmy","annualNetGeneration":1698721,"coordinates":{"lat":40.881317,"lon":-117.151605},"annualPercentage":0.0409108},{"stateAbbreviation":"IL","plantName":"Cordova Energy Company","annualNetGeneration":1675878,"coordinates":{"lat":41.712216,"lon":-90.279679},"annualPercentage":0.0403607},{"stateAbbreviation":"MA","plantName":"ANP Blackstone Energy Company, LLC","annualNetGeneration":1672360,"coordinates":{"lat":42.059876,"lon":-71.515811},"annualPercentage":0.0402759},{"stateAbbreviation":"MS","plantName":"Attala Generating Plant","annualNetGeneration":1658876,"coordinates":{"lat":33.0147,"lon":-89.6753},"annualPercentage":0.0399512},{"stateAbbreviation":"IL","plantName":"Marion","annualNetGeneration":1652019,"coordinates":{"lat":37.619747,"lon":-88.953114},"annualPercentage":0.0397861},{"stateAbbreviation":"AZ","plantName":"Irvington Generating Station","annualNetGeneration":1648044,"coordinates":{"lat":32.16,"lon":-110.9047},"annualPercentage":0.0396903},{"stateAbbreviation":"CA","plantName":"Colgate","annualNetGeneration":1638632,"coordinates":{"lat":39.330833,"lon":-121.191666},"annualPercentage":0.0394636},{"stateAbbreviation":"AL","plantName":"Wheeler Dam","annualNetGeneration":1630299.999,"coordinates":{"lat":34.8069,"lon":-87.3819},"annualPercentage":0.039263},{"stateAbbreviation":"IA","plantName":"George Neal North","annualNetGeneration":1628432,"coordinates":{"lat":42.299794,"lon":-96.361707},"annualPercentage":0.039218},{"stateAbbreviation":"TX","plantName":"Nueces Bay","annualNetGeneration":1624574,"coordinates":{"lat":27.819412,"lon":-97.419203},"annualPercentage":0.0391251},{"stateAbbreviation":"MO","plantName":"Sikeston","annualNetGeneration":1618677,"coordinates":{"lat":36.8791,"lon":-89.6209},"annualPercentage":0.0389831},{"stateAbbreviation":"KY","plantName":"Elmer Smith","annualNetGeneration":1604913,"coordinates":{"lat":37.7942,"lon":-87.0608},"annualPercentage":0.0386516},{"stateAbbreviation":"FL","plantName":"Stanton A","annualNetGeneration":1592084,"coordinates":{"lat":28.488246,"lon":-81.166944},"annualPercentage":0.0383426},{"stateAbbreviation":"FL","plantName":"Arvah B Hopkins","annualNetGeneration":1579301,"coordinates":{"lat":30.4522,"lon":-84.4},"annualPercentage":0.0380348},{"stateAbbreviation":"MT","plantName":"Noxon Rapids","annualNetGeneration":1573513,"coordinates":{"lat":47.96048,"lon":-115.73361},"annualPercentage":0.0378954},{"stateAbbreviation":"CA","plantName":"Magnolia","annualNetGeneration":1571046,"coordinates":{"lat":34.1786,"lon":-118.3153},"annualPercentage":0.037836},{"stateAbbreviation":"KS","plantName":"Holcomb","annualNetGeneration":1569548,"coordinates":{"lat":37.9308,"lon":-100.9725},"annualPercentage":0.0377999},{"stateAbbreviation":"AL","plantName":"Theodore Cogeneration","annualNetGeneration":1551817,"coordinates":{"lat":30.525445,"lon":-88.128477},"annualPercentage":0.0373729},{"stateAbbreviation":"TN","plantName":"Bull Run","annualNetGeneration":1551288,"coordinates":{"lat":36.0211,"lon":-84.1567},"annualPercentage":0.0373601},{"stateAbbreviation":"OK","plantName":"Muskogee","annualNetGeneration":1551059,"coordinates":{"lat":35.76135,"lon":-95.28732},"annualPercentage":0.0373546},{"stateAbbreviation":"TX","plantName":"Barney M. Davis","annualNetGeneration":1547751,"coordinates":{"lat":27.6064,"lon":-97.3117},"annualPercentage":0.0372749},{"stateAbbreviation":"IA","plantName":"George Neal South","annualNetGeneration":1543516,"coordinates":{"lat":42.3006,"lon":-96.3617},"annualPercentage":0.0371729},{"stateAbbreviation":"LA","plantName":"LaO Energy Systems","annualNetGeneration":1543176,"coordinates":{"lat":30.3186,"lon":-91.2325},"annualPercentage":0.0371648},{"stateAbbreviation":"MS","plantName":"Baxter Wilson","annualNetGeneration":1537953,"coordinates":{"lat":32.2831,"lon":-90.9306},"annualPercentage":0.037039},{"stateAbbreviation":"WI","plantName":"J P Madgett","annualNetGeneration":1534882,"coordinates":{"lat":44.303583,"lon":-91.912647},"annualPercentage":0.036965},{"stateAbbreviation":"LA","plantName":"Axiall Plaquemine","annualNetGeneration":1533354,"coordinates":{"lat":30.2586,"lon":-91.185},"annualPercentage":0.0369282},{"stateAbbreviation":"CA","plantName":"Crockett Cogen Project","annualNetGeneration":1529666,"coordinates":{"lat":38.0569,"lon":-122.2161},"annualPercentage":0.0368394},{"stateAbbreviation":"NC","plantName":"Mayo","annualNetGeneration":1525530,"coordinates":{"lat":36.5278,"lon":-78.8917},"annualPercentage":0.0367398},{"stateAbbreviation":"SD","plantName":"Big Bend Dam","annualNetGeneration":1525056.002,"coordinates":{"lat":44.0384,"lon":-99.4463},"annualPercentage":0.0367284},{"stateAbbreviation":"IN","plantName":"Fowler Ridge Wind Farm LLC","annualNetGeneration":1521642,"coordinates":{"lat":40.583889,"lon":-87.3336},"annualPercentage":0.0366461},{"stateAbbreviation":"TX","plantName":"Sand Hill Energy Center","annualNetGeneration":1517501.998,"coordinates":{"lat":30.2098,"lon":-97.6129},"annualPercentage":0.0365464},{"stateAbbreviation":"MT","plantName":"Libby","annualNetGeneration":1511427,"coordinates":{"lat":48.4098,"lon":-115.3143},"annualPercentage":0.0364001},{"stateAbbreviation":"TX","plantName":"Ennis Power Company, LLC","annualNetGeneration":1504975,"coordinates":{"lat":32.32,"lon":-96.675},"annualPercentage":0.0362447},{"stateAbbreviation":"ID","plantName":"Langley Gulch Power Plant","annualNetGeneration":1501424,"coordinates":{"lat":43.904444,"lon":-116.819722},"annualPercentage":0.0361592},{"stateAbbreviation":"VA","plantName":"Hopewell Cogeneration Facility","annualNetGeneration":1495428,"coordinates":{"lat":37.291667,"lon":-77.281111},"annualPercentage":0.0360148},{"stateAbbreviation":"RI","plantName":"Manchester Street Station","annualNetGeneration":1484595,"coordinates":{"lat":41.8167,"lon":-71.4042},"annualPercentage":0.0357539},{"stateAbbreviation":"DE","plantName":"Hay Road","annualNetGeneration":1473851,"coordinates":{"lat":39.7436,"lon":-75.5072},"annualPercentage":0.0354952},{"stateAbbreviation":"IL","plantName":"Havana","annualNetGeneration":1473425,"coordinates":{"lat":40.2797,"lon":-90.08},"annualPercentage":0.0354849},{"stateAbbreviation":"CA","plantName":"Blythe Energy","annualNetGeneration":1468625,"coordinates":{"lat":33.6157,"lon":-114.6865},"annualPercentage":0.0353693},{"stateAbbreviation":"IA","plantName":"Highland Wind Project (IA)","annualNetGeneration":1461072,"coordinates":{"lat":43.080278,"lon":-95.656111},"annualPercentage":0.0351874},{"stateAbbreviation":"AZ","plantName":"Kyrene Generating Station","annualNetGeneration":1454644,"coordinates":{"lat":33.3556,"lon":-111.9353},"annualPercentage":0.0350326},{"stateAbbreviation":"TX","plantName":"Shell Deer Park","annualNetGeneration":1447136,"coordinates":{"lat":29.723185,"lon":-95.128856},"annualPercentage":0.0348518},{"stateAbbreviation":"MA","plantName":"Kendall Green Energy LLC","annualNetGeneration":1446774,"coordinates":{"lat":42.3633,"lon":-71.0792},"annualPercentage":0.0348431},{"stateAbbreviation":"TX","plantName":"Blackhawk Station","annualNetGeneration":1434277,"coordinates":{"lat":35.6957,"lon":-101.36},"annualPercentage":0.0345421},{"stateAbbreviation":"NE","plantName":"Grande Prairie Wind Farm","annualNetGeneration":1434129,"coordinates":{"lat":42.608056,"lon":-98.428333},"annualPercentage":0.0345385},{"stateAbbreviation":"KY","plantName":"E W Brown","annualNetGeneration":1429978.999,"coordinates":{"lat":37.78831,"lon":-84.71257},